,id,alias,name,is_closed,phone,address1,address2,address3,city,zip_code,country,state,display_address,latitude,longitude
0,knJ09FJQ3Z34n2OFok7IIQ,tradamerican;bars;poolhalls,Last Stand Diner & Saloon,False,+15096328777,502 W Main St,,,Coulee City,99115,US,WA,"['502 W Main St', 'Coulee City, WA 99115']",47.611465,-119.294562
1,7grYBBHdTy_oVriH_GmVeg,coffee;breakfast_brunch,Banks Lake Brew & Bistro,False,+15096325611,9701 Hwy 2 E,,,Coulee City,99115,US,WA,"['9701 Hwy 2 E', 'Coulee City, WA 99115']",47.6249984,-119.2719082
2,VbMUiQHdaun2DbBtKlIUyA,brazilian;italian;pizza,La Cucina Di Sophia,False,+15098664200,218 Main Ave E,,,Soap Lake,98851,US,WA,"['218 Main Ave E', 'Soap Lake, WA 98851']",47.389343,-119.486614
3,B6dL3KAzET1Umt_DqSGQWw,modern_european,Mom's European Foods and Deli,False,+15092461121,241 Main Ave,,,Soap Lake,98851,US,WA,"['241 Main Ave', 'Soap Lake, WA 98851']",47.38924,-119.48552
4,bg-Q-kIG1W71eavKe2SWgQ,cafes;coffee,Fusion Cafe and Espresso,False,+15096313011,302 Coulee Blvd E,,,Electric City,99123,US,WA,"['302 Coulee Blvd E', 'Electric City, WA 99123']",47.934082,-119.033156
5,HqdoFTjLbOjnScKcDU4JeA,mexican,Taqueria Covian,False,+15097541089,1105 Basin St SW,Ste B,,Ephrata,98823,US,WA,"['1105 Basin St SW', 'Ste B', 'Ephrata, WA 98823']",47.31067,-119.55939
6,TURZs9KDUWQTN2cFcjQzkw,mexican,Lapresa Mexican Restaurant,False,+15096333173,515 E Grand Coulee Ave,,,Grand Coulee,99133,US,WA,"['515 E Grand Coulee Ave', 'Grand Coulee, WA 99133']",47.93336,-118.98952
7,B8RgMM3qy_qUQvQ8rrEAlA,soup;burgers;cafes,Kenice's Cafe,False,+15096393000,906 Willard St,,,Hartline,99135,US,WA,"['906 Willard St', 'Hartline, WA 99135']",47.6902811643342,-119.1080866009
8,VQENaibMaZVb_NFas59pjQ,wine_bars;seafood;steak,Michaels on the Lake,False,+15097651611,910 W Broadway Ave,,,Moses Lake,98837,US,WA,"['910 W Broadway Ave', 'Moses Lake, WA 98837']",47.12614,-119.28955
9,fX8lpITuXDOYTfIYNubkzA,delis;gourmet,Michael's Market & Bistro,False,+15097654177,221 W Broadway Ave,,,Moses Lake,98837,US,WA,"['221 W Broadway Ave', 'Moses Lake, WA 98837']",47.129636,-119.280992
10,D3jGpoJdP6Q9-7gyd_9hZA,sandwiches;mediterranean;hotdogs,Pita Pit,False,+15097547172,26 Basin St Norhtwest,,,Ephrata,98823,US,WA,"['26 Basin St Norhtwest', 'Ephrata, WA 98823']",47.32096,-119.55108
11,jkrKYgUbvU4urjgqhPgC1A,pizza;gluten_free;desserts,Local Myth Pizza,False,+15096822914,122 S Emerson St,,,Chelan,98816,US,WA,"['122 S Emerson St', 'Chelan, WA 98816']",47.839238,-120.017218
12,9YYRKosgglyY9EStD0R7Ow,diners;tradamerican,Coulee Cruisers,False,+15097611887,214 Daisy St S,,,Soap Lake,98851,US,WA,"['214 Daisy St S', 'Soap Lake, WA 98851']",47.38717,-119.48272
13,dsyfvPotzPsp1vcD6eliXg,mexican,Tacos El Rey Taqueria,False,+15098551741,1571 Yonezawa Blvd,,,Moses Lake,98837,US,WA,"['1571 Yonezawa Blvd', 'Moses Lake, WA 98837']",47.10514,-119.25145
14,lGGlTxrUIrM9DyY8PNSacg,bookstores;coffee;cafes,The Bookery,False,+15097545321,1 Basin St NW,,,Ephrata,98823,US,WA,"['1 Basin St NW', 'Ephrata, WA 98823']",47.32099,-119.55179
15,F1iVJ0j2peBHY7mfCvxYhg,burgers;tradamerican;icecream,D K's Drive In,False,+15097543000,805 Basin St NW,,,Ephrata,98823,US,WA,"['805 Basin St NW', 'Ephrata, WA 98823']",47.32971,-119.54561
16,wbftXRu3aeEyYIEf0uDsAA,breakfast_brunch;cafes;juicebars,Riverwalk Cafe,False,+15096822627,204 E Wapato Ave,,,Chelan,98816,US,WA,"['204 E Wapato Ave', 'Chelan, WA 98816']",47.83869,-120.01655
17,A8PzCYDW6hWhtlw7vQ-UUw,creperies;gluten_free;organic_stores,Bear Foods Natural Market & Cafe,False,+15096825535,125 E Woodin Ave,,,Chelan,98816,US,WA,"['125 E Woodin Ave', 'Chelan, WA 98816']",47.840245516977,-120.01795707182
18,nN4sTW_iCnKYOCgfb2ThPw,cafes;coffee;donuts,Red Door Cafè,False,+15093505525,202 W 3rd Ave,,,Moses Lake,98837,US,WA,"['202 W 3rd Ave', 'Moses Lake, WA 98837']",47.129558,-119.280212
19,7q--kmCKMYnqgQdLWj_Ggg,vietnamese,Pho Saigon Restaurant,False,+15097651233,115 W 3rd Ave,,,Moses Lake,98837,US,WA,"['115 W 3rd Ave', 'Moses Lake, WA 98837']",47.12961,-119.27855
20,ARXyavsxmpK3Swb2pGkHIw,cafes;cocktailbars;sandwiches,The Fox & Quail Cafe,False,+15096824196,303 E Wapato Ave,,,Chelan,98816,US,WA,"['303 E Wapato Ave', 'Chelan, WA 98816']",47.8392219543457,-120.014556884766
21,xaVX7kH8qTKQRycp7hsd2A,pizza;burgers,Time Out,False,+15097541111,1095 Basin St SW,,,Ephrata,98823,US,WA,"['1095 Basin St SW', 'Ephrata, WA 98823']",47.3109550476074,-119.559158325195
22,N65BNS3iBnkBH6y-EB8cBw,tradamerican;breakfast_brunch;bars,Apple Cup Cafe,False,+15096822933,804 E Woodin Ave,,,Chelan,98816,US,WA,"['804 E Woodin Ave', 'Chelan, WA 98816']",47.83934,-120.00517
23,fJqF5B7ZCDRL8Mpzuc_Alg,burgers;hotdogs,Billy Burgers Drive In,False,+15096475651,804 NE Main Ave,,,Wilbur,99185,US,WA,"['804 NE Main Ave', 'Wilbur, WA 99185']",47.7575451,-118.6971428
24,eR2sYkGGGUiH3M8S5qRbrA,mexican,Marcela's Cocina Mexicana,False,+15096824754,119 E Woodin Ave,,,Chelan,98816,US,WA,"['119 E Woodin Ave', 'Chelan, WA 98816']",47.84023,-120.01826
25,bYDYel3nmUPtnAnY-YZySw,mexican,El Agave Ephrata,False,+15097172062,906 Basin St SW,,,Ephrata,98823,US,WA,"['906 Basin St SW', 'Ephrata, WA 98823']",47.3125375,-119.55705883
26,20YkcS3Tk_x1uB9Z4DTdyw,pizza,Chico's Pizza Parlor,False,+15097654589,530 Valley Rd,,Vista Village Shopping Ctr,Moses Lake,98837,US,WA,"['530 Valley Rd', 'Vista Village Shopping Ctr', 'Moses Lake, WA 98837']",47.1385849,-119.2876018
27,at_1R-8_H0z6JPOcROdt9w,mexican,El Rodeo Restaurant,False,+15097650606,1075 W Broadway Ave,,,Moses Lake,98837,US,WA,"['1075 W Broadway Ave', 'Moses Lake, WA 98837']",47.1225072409291,-119.291763310959
28,MTjW64bntwyL0t5OxpGEOQ,seafood;burgers;steak,Porterhouse Steakhouse,False,+15097660308,217 N Elder St,,,Moses Lake,98837,US,WA,"['217 N Elder St', 'Moses Lake, WA 98837']",47.13243,-119.27049
29,RU9nD7oPGIe65xKR7EDG9Q,mexican,Fonda Oaxaquena,False,,127 E Johnson Ave,,,Chelan,98816,US,WA,"['127 E Johnson Ave', 'Chelan, WA 98816']",47.84108,-120.01791
30,lw8VlUwpSuZfu8l0KYw09A,burgers;newamerican,Rock Top Burgers & Brew,False,+15097669000,930 N Stratford Rd,,,Moses Lake,98837,US,WA,"['930 N Stratford Rd', 'Moses Lake, WA 98837']",47.1413397268756,-119.278932041565
31,PCcpWawWP74Co4OK-dHwpg,tradamerican;bars,Pepper Jack Bar and Grill,False,+15096338283,113 Midway Ave,,,Grand Coulee,99133,US,WA,"['113 Midway Ave', 'Grand Coulee, WA 99133']",47.9411504,-119.0056251
32,A3VUpo7nO9t8zEHCgMSINw,mexican,Tacos El Rey,False,+15097648611,317 W Broadway Ave,,,Moses Lake,98837,US,WA,"['317 W Broadway Ave', 'Moses Lake, WA 98837']",47.1292199,-119.28192
33,MnUfCetf74dC26vN4W8Zzw,italian;wine_bars,Sorrento's Ristorante,False,+15096829463,3875 Highway 97A,,,Chelan,98816,US,WA,"['3875 Highway 97A', 'Chelan, WA 98816']",47.837055,-120.079604
34,conbbyYS4JfnbhC1xCS6SA,wine_bars;breakfast_brunch;coffee,The Vogue,False,+15098885282,117 E Woodin Ave,,,Chelan,98816,US,WA,"['117 E Woodin Ave', 'Chelan, WA 98816']",47.8401763164242,-120.018272631494
35,C-BRJSvGPE25bKrBIF8E7g,newamerican;winetastingroom,Vin du Lac Winery & Bistro,False,+15096822882,105 Hwy 150,,,Chelan,98816,US,WA,"['105 Hwy 150', 'Chelan, WA 98816']",47.8484296542459,-120.036444839783
36,9lsX-oV792ACzD94d-0-Aw,chinese;thai,Siam Palace,False,+15096332921,213 Main St,,,Grand Coulee,99133,US,WA,"['213 Main St', 'Grand Coulee, WA 99133']",47.94065,-119.0026
37,S2gnYbxAlqgTZsxCrC98bA,cafes,Voltage Coffee House,False,+15096312035,140 Spokane Way,,,Grand Coulee,99133,US,WA,"['140 Spokane Way', 'Grand Coulee, WA 99133']",47.93938,-119.00441
38,-BcH0L5Z7nBHEYHbbC_WBA,tradamerican;burgers;hotdog,Lakeview Drive In,False,+15096825322,323 W Manson Hwy,,,Chelan,98816,US,WA,"['323 W Manson Hwy', 'Chelan, WA 98816']",47.8418173758948,-120.023918999173
39,7k1NMr35jpeWHXrZXwjlvw,breweries;bbq;sandwiches,Stormy Mountain Brewing,False,+15098885665,133 Woodin Ave,,,Chelan,98816,US,WA,"['133 Woodin Ave', 'Chelan, WA 98816']",47.84021,-120.01757
40,PK4HwA19GHQqwarQdOAHMQ,mexican,Tequilas Mexican Restaurant,False,+15097541306,222 Basin St NW,,,Ephrata,98823,US,WA,"['222 Basin St NW', 'Ephrata, WA 98823']",47.32282,-119.54957
41,_xMZCqffh_3swDjcZ7TpsA,delis,Country Deli,False,+15097543143,245 Basin St NW,,,Ephrata,98823,US,WA,"['245 Basin St NW', 'Ephrata, WA 98823']",47.3233108520508,-119.550277709961
42,jkudSsf6-jhXgx_99P6Uaw,coffee;bagels;sandwiches,Sage Coffee House &  Bistro,False,+15092370457,1099 Hwy 283 N,,,Quincy,98848,US,WA,"['1099 Hwy 283 N', 'Quincy, WA 98848']",47.104175,-119.829874
43,UHZDjVJM6uGAIUW-eC-aqA,tradamerican,J's Teriyaki Grill,False,+15097645155,123 E Broadway Ave,,,Moses Lake,98837,US,WA,"['123 E Broadway Ave', 'Moses Lake, WA 98837']",47.13144,-119.27772
44,ACVTVDLwQSYNq8eQwlTJbw,mexican,El Dorado,False,+15097661488,1202 W Broadway,,,Moses Lake,98837,US,WA,"['1202 W Broadway', 'Moses Lake, WA 98837']",47.1199669823474,-119.294302050927
45,vWOJoeHD5yPmkJTpSKTStQ,pizza;italian,Guido's Brick Oven Pizza,False,+15097667777,2707 W Broadway Ave,Ste A,,Moses Lake,98837,US,WA,"['2707 W Broadway Ave', 'Ste A', 'Moses Lake, WA 98837']",47.10485,-119.30977
46,NZcmzFdnjRKqIBnRmjGiew,restaurants,Cafe Espresso,False,+15096331613,416 Midway Ave,,,Grand Coulee,99133,US,WA,"['416 Midway Ave', 'Grand Coulee, WA 99133']",47.9409798,-119.0070846
47,B_IVO9fEbijj6Ju8DEB9Aw,pizza,Hometown Pizza,False,+15096333393,121 Bridgeport Hwy,,,Grand Coulee,99133,US,WA,"['121 Bridgeport Hwy', 'Grand Coulee, WA 99133']",47.9403926,-119.010744769836
48,xERoHrgRzYLKxyAmzbix-w,sushi;japanese;steak,Sumo Japanese Steakhouse & Sushi,False,+15097655333,933 N Stratford Rd,Ste A,,Moses Lake,98837,US,WA,"['933 N Stratford Rd', 'Ste A', 'Moses Lake, WA 98837']",47.1411512198562,-119.277022797476
49,mfeObU_nqpt6ymjaqNTvIA,tradamerican;seafood;burgers,Idle Hour Eatery & Spirits,False,+15097873714,18 B St SE,,,Quincy,98848,US,WA,"['18 B St SE', 'Quincy, WA 98848']",47.2360965,-119.852394
50,7RihvHFQ3zImOxvkL1eY7g,mexican,Rich Tacos,False,+15093984564,119 F ST SE,,,Quincy,98848,US,WA,"['119 F ST SE', 'Quincy, WA 98848']",47.23383,-119.85045
51,bEC9ZDlEhFbaTUBwDVbHxQ,newamerican,Campbell's Pub & Veranda,False,+15096824250,104 W Woodin Ave,,,Chelan,98816,US,WA,"['104 W Woodin Ave', 'Chelan, WA 98816']",47.8401169262758,-120.019621404119
52,kN2SPUfqfNHtAmZNFfyvcg,tradamerican,Tin Lilly,False,+15098888101,229 E Woodin Ave,,,Chelan,98816,US,WA,"['229 E Woodin Ave', 'Chelan, WA 98816']",47.84015,-120.01517
53,WoGm2Djkvx3fBtbu5Ayrqw,tradamerican;salad;burgers,Coyote Pass Cafe,False,+15098884189,104 W Locust,,,Waterville,98858,US,WA,"['104 W Locust', 'Waterville, WA 98858']",47.647087097168,-120.072128295898
54,D9nXWM5nY92ZUDa8sh9k7A,mexican;bars,La Brisa Mexican Restaurant,False,+15096825633,246 W Manson Hwy,Ste 11,,Chelan,98816,US,WA,"['246 W Manson Hwy', 'Ste 11', 'Chelan, WA 98816']",47.84339,-120.0232
55,9HYCmAL10FOMgUlE_cXRuw,tradamerican,Woody's Drive-In,False,+15097657369,423 W Broadway Ave,,,Moses Lake,98837,US,WA,"['423 W Broadway Ave', 'Moses Lake, WA 98837']",47.1285651864495,-119.283650671875
56,_vmqvCNTzf0WtaPCPJWyOg,sushi;japanese,Tsunami Sushi,False,+15097642040,109 W 3rd Ave,,,Moses Lake,98837,US,WA,"['109 W 3rd Ave', 'Moses Lake, WA 98837']",47.129889,-119.2782854
57,gn29JZgAJ5lXGIJvG5hYsA,italian,Andante,False,+15098884855,113 S Emerson St,,,Chelan,98816,US,WA,"['113 S Emerson St', 'Chelan, WA 98816']",47.8393783569336,-120.016494750977
58,VY_N8S9w__CQp9iFdKQPWg,foodtrucks;mexican,Tacos La Roca,False,+15094700228,1056B E Woodin Ave,,,Chelan,98816,US,WA,"['1056B E Woodin Ave', 'Chelan, WA 98816']",47.8387460631856,-119.998314790428
59,nAaa4fY89oQ2LqclX09pCA,pizza,Company Creek Pizza,False,+15096822000,502 W Manson Hwy,,,Chelan,98816,US,WA,"['502 W Manson Hwy', 'Chelan, WA 98816']",47.8439971493234,-120.023562966985
60,No8UxGOJC-i3TcydgdFraQ,wineries;venues;italian,Tsillan Cellars,False,+15096829463,3875 US Hwy 97A,,,Chelan,98816,US,WA,"['3875 US Hwy 97A', 'Chelan, WA 98816']",47.8348332140611,-120.080576249195
61,nIWbByNpYc1EuxSXyJEryA,bakeries;pizza;sandwiches,SweetRiver Bakery,False,+15099232151,203 Lakeshore Dr,,,Pateros,98846,US,WA,"['203 Lakeshore Dr', 'Pateros, WA 98846']",48.052533,-119.900738
62,71-l9VGFS5MVwvMZGV0D_g,foodtrucks;mexican;catering,Taqueria Mazatlan,False,+15093983634,612 E Woodin Ave,,,Chelan,98816,US,WA,"['612 E Woodin Ave', 'Chelan, WA 98816']",47.839408,-120.008074
63,5rE-oADc2b2MRwLKBgxUqA,tradamerican;pubs,Banks Lake Pub,False,+15096332000,17 W Coulee Blvd,,,Electric City,99357,US,WA,"['17 W Coulee Blvd', 'Electric City, WA 99357']",47.933023,-119.037397
64,Ng7rUIgulMZRrHZeKkmqZQ,italian;pastashops;salad,NS Italian Fresh Take to Go,False,+15097548000,33 Basin St NW,,,Ephrata,98823,US,WA,"['33 Basin St NW', 'Ephrata, WA 98823']",47.32131,-119.55144
65,HRmNHeERPkV8VRmuwsZ03Q,thai,Thai Cuisine,False,+15097661489,601 S Pioneer Way,Ste H,,Moses Lake,98837,US,WA,"['601 S Pioneer Way', 'Ste H', 'Moses Lake, WA 98837']",47.129448,-119.268538
66,Nk24pMNIit8TioJTXdWLNQ,tapasmallplates;cocktailbars,Layla's,False,+15098880800,142 E Woodin Ave,,,Chelan,98816,US,WA,"['142 E Woodin Ave', 'Chelan, WA 98816']",47.839705172809,-120.015898829113
67,bJz3OGQCN1mmZsaDvyodgw,mexican,Taco Shop,False,+15097659307,319 W 4th Ave,,,Moses Lake,98837,US,WA,"['319 W 4th Ave', 'Moses Lake, WA 98837']",47.12749,-119.28046
68,nNcp_QYHyjNAj8s4JAkh3A,mexican,Camperos Mexican Restaurant,False,+15096892183,301 E Main Ave,,,Brewster,98812,US,WA,"['301 E Main Ave', 'Brewster, WA 98812']",48.09909,-119.779681
69,A2P8kmnKs8KUCZ4hvyaYrA,sandwiches,Subway,False,+15097540977,303 Basin St SW,,,Ephrata,98823,US,WA,"['303 Basin St SW', 'Ephrata, WA 98823']",47.3176345661358,-119.554280524128
70,N2ZjTb0dBcSWKfB2YhEzsA,bakeries;coffee;breakfast_brunch,Lake Chelan Artisan Bakery,False,+15096822253,246 W Manson Hwy,,,Chelan,98816,US,WA,"['246 W Manson Hwy', 'Chelan, WA 98816']",47.842222,-120.022205
71,RBpNbD6CuAk0vwqsPhOLcg,foodtrucks;greek,Chris & Beck's Eat A Pita,False,+15096307965,2227 Woodin Ave,,,Chelan,98816,US,WA,"['2227 Woodin Ave', 'Chelan, WA 98816']",47.83567,-120.05386
72,0ik8vMDzIxaTM4JNTpONNw,diners;breakfast_brunch,Mom & Pop's Diner,False,,805 W Broadway Ave,,,Moses Lake,98837,US,WA,"['805 W Broadway Ave', 'Moses Lake, WA 98837']",47.1266589287167,-119.287442229688
73,moq6hfB_jXIqjk4maRxQxg,foodstands;asianfusion,Quick Wok,False,+15096821555,908 E Woodin Ave,,,Chelan,98816,US,WA,"['908 E Woodin Ave', 'Chelan, WA 98816']",47.83938,-120.00357
74,kI7j_2foWA2AX_hjVu0aBg,newamerican;seafood;steak,Pillar Rock Grill,False,+15097658131,1373 Road F NE,,,Moses Lake,98837,US,WA,"['1373 Road F NE', 'Moses Lake, WA 98837']",47.107184,-119.35634
75,FVSqEcITHqCQ2_Qo4FXSTw,bbq,BBQ In The Vineyard,False,+15096879463,3519 Sr 150,,,Chelan,98816,US,WA,"['3519 Sr 150', 'Chelan, WA 98816']",47.8724171,-120.1074064
76,Fe65iyIxJEglInUuSxYaLg,pizza;desserts;chicken_wings,Westside Pizza,False,+15096824321,137 E Woodin Ave,,,Chelan,98816,US,WA,"['137 E Woodin Ave', 'Chelan, WA 98816']",47.8400526610255,-120.017271230666
77,nH_4HwNx1DaumHnibobLQg,grocery;delis,Safeway,False,+15097544441,1150 Basin St SW,,,Ephrata,98823,US,WA,"['1150 Basin St SW', 'Ephrata, WA 98823']",47.3095325481542,-119.558524596959
78,OR0lzgC6NHhQd7AoomAH0g,mexican,Inca Mexican Restaurant,False,+15097662426,404 E 3rd Ave,,,Moses Lake,98837,US,WA,"['404 E 3rd Ave', 'Moses Lake, WA 98837']",47.1323999,-119.27447
79,6IldJtvIIGiZdk6lX1RcZA,hotdogs,Dusty's In-N-Out,False,+15097544322,1277 Basin St SW,,,Ephrata,98823,US,WA,"['1277 Basin St SW', 'Ephrata, WA 98823']",47.30786,-119.5611994
80,tIkQugkKsNbG5HTgQr4ymA,cafes,Corner Cafe,False,+15096362233,100 Watson St NW,,,Creston,99117,US,WA,"['100 Watson St NW', 'Creston, WA 99117']",47.7588218817765,-118.520231969946
81,HwC-oEl7PTOBXHDLh_65sg,tradamerican;pizza,Knemeyer's Eatery & Spirits,False,+15097458450,115 W Locust St,,,Waterville,98858,US,WA,"['115 W Locust St', 'Waterville, WA 98858']",47.6476554870605,-120.072868347168
82,jxYmpTFERAy9qA3qpEpCUw,mexican,Tijuana's Quincy,False,+15097874891,709 1st Ave SE,,,Quincy,98848,US,WA,"['709 1st Ave SE', 'Quincy, WA 98848']",47.23258,-119.85211
83,UVyPaT7fd-aZFCeAbW8CiA,pizza,The Reel Pizza Place,False,+15097540103,347 Basin St NW,,Lee Theatre,Ephrata,98823,US,WA,"['347 Basin St NW', 'Lee Theatre', 'Ephrata, WA 98823']",47.3243333,-119.5490754
84,u8luYH5f4x1ScroakquMBg,chinese,Tree Cafe,False,+15097646609,218 W 3rd Ave,,,Moses Lake,98837,US,WA,"['218 W 3rd Ave', 'Moses Lake, WA 98837']",47.1293156,-119.2800724
85,Kj9jVKLnTjQS7_GfqWuLlA,mexican,Mi Cocinita & Groceries,False,+15097546170,444 E Division Ave,,,Ephrata,98823,US,WA,"['444 E Division Ave', 'Ephrata, WA 98823']",47.318245,-119.543823
86,wXRo7qKXtYo3UIO7WGy-9A,panasian;delis,Mommy Yum Yum Asian Restaurant & Deli,False,+15097541209,356 Basin St NW,,,Ephrata,98823,US,WA,"['356 Basin St NW', 'Ephrata, WA 98823']",47.3241207003593,-119.549098089337
87,QMA7x2ejOp7n5wjVIywlag,restaurants,Tee Pee Drive-In,False,+15096332111,211 Midway Ave,,,Grand Coulee,99133,US,WA,"['211 Midway Ave', 'Grand Coulee, WA 99133']",47.9411345660665,-119.005975933554
88,vh-0JqbDIKBX6wvQejr8fg,hotdogs;mexican,Central Market,False,+15097875100,726 Central Ave S,,,Quincy,98848,US,WA,"['726 Central Ave S', 'Quincy, WA 98848']",47.2321383,-119.8531309
89,mTsoRkU3FpiH1VfXxy6pcg,cafes,L & R Cafe,False,+15097872210,1114 Central Ave,,,Quincy,98848,US,WA,"['1114 Central Ave', 'Quincy, WA 98848']",47.2277755737305,-119.852935791016
90,79VMibNJQgg0YkHuIYQrww,restaurants,Electric City Tavern,False,+15096332221,2 W Coulee Blvd,,,Electric City,99123,US,WA,"['2 W Coulee Blvd', 'Electric City, WA 99123']",47.9321727321752,-119.038290382934
91,6aT6l1I3RGR5Fb6zqBWfLA,cafes,Bobs Cafe,False,+15097653211,1807 E Kittleson,,,Moses Lake,98837,US,WA,"['1807 E Kittleson', 'Moses Lake, WA 98837']",47.10135,-119.24546
92,quTLGitW1MTyxCLenK_-Pg,mexican,Mi Casa Mexican Restaurant,False,+15097650993,1325 S Pioneer Way,,,Moses Lake,98837,US,WA,"['1325 S Pioneer Way', 'Moses Lake, WA 98837']",47.11584,-119.2625
93,c2MagKpuNnd_Tm5Jw58fwg,pizza;burgers,Time Out,False,+15097978888,610 F St SE,,,Quincy,98848,US,WA,"['610 F St SE', 'Quincy, WA 98848']",47.23369,-119.84231
94,HfM2OAmhNccKGLonF5SYdw,japanese,Chelan Teriyaki,False,+15098884466,109 S Emerson St,,,Chelan,98816,US,WA,"['109 S Emerson St', 'Chelan, WA 98816']",47.839517,-120.01664
95,Z-SmKo_caVp8gGn8Zks4bQ,restaurants,Harvest Moon,False,+15093452432,213 Railroad,,,Wilson Creek,98860,US,WA,"['213 Railroad', 'Wilson Creek, WA 98860']",47.4223785400391,-119.124305725098
96,fW5gr46jcfNE9P00BPr70g,meats;mexican,Carniceria El Primo,False,+15097653577,230 N Elder St,,,Moses Lake,98837,US,WA,"['230 N Elder St', 'Moses Lake, WA 98837']",47.132382,-119.271556
97,4C551Oa0I4TDucMZY1IN3Q,icecream;sandwiches;tradamerican,Green Dot Sub Shop,False,+15098887018,110 E Woodin Ave,,,Chelan,98816,US,WA,"['110 E Woodin Ave', 'Chelan, WA 98816']",47.83979,-120.01894
98,CxzuFogDTle8xc7PgRrs0g,cafes,R & A Cafe,False,+15096332233,514 Birch St,,,Coulee Dam,99116,US,WA,"['514 Birch St', 'Coulee Dam, WA 99116']",47.966159,-118.978325930638
99,7vWQBP6sF1ln0YqJJ8nVjg,tradamerican;breakfast_brunch;burgers,Chiefs Bar & Grill,False,+15099822999,17 E 1st Ave,,,Odessa,99159,US,WA,"['17 E 1st Ave', 'Odessa, WA 99159']",47.33336,-118.68984
100,X1zKtr545X0GANKAl_wyMg,burgers;sandwiches,Mulligans at the Pointe,False,+15097642275,4524 Westshore Dr NE,,,Moses Lake,98837,US,WA,"['4524 Westshore Dr NE', 'Moses Lake, WA 98837']",47.15366,-119.35947
101,saDL0PCUVbJbd3QmM339xA,tradamerican;steak,Wendy's Steakhouse & Tavern,False,,144 W Division Ave,,,Ephrata,98823,US,WA,"['144 W Division Ave', 'Ephrata, WA 98823']",47.320413,-119.5513693
102,2buuM3z1mYNphMnoI8XOZA,sandwiches;mediterranean;hotdogs,Pita Pit,False,+15097977612,402 Central Ave S,,,Quincy,98848,US,WA,"['402 Central Ave S', 'Quincy, WA 98848']",47.23432,-119.8532251
103,say-wVa3tIWBwfU_wVVQTw,tradamerican,Doxie's Dine In,False,+15096475544,523 NW Main Ave,,,Wilbur,99185,US,WA,"['523 NW Main Ave', 'Wilbur, WA 99185']",47.760217,-118.711305
104,8bLgjD2vB4WE6nUXAGAGeg,mexican,Tacos Mi Casa,False,+15093619120,711 N Stratford Rd,Ste D,,Moses Lake,98837,US,WA,"['711 N Stratford Rd', 'Ste D', 'Moses Lake, WA 98837']",47.1283462032975,-119.294701373016
105,z1fo2bkV4qRS_p1eZ2v4VQ,tradamerican;bars,Lakeside Bistro,False,+15092461217,14 Canna St N,,,Soap Lake,98851,US,WA,"['14 Canna St N', 'Soap Lake, WA 98851']",47.389584,-119.484946
106,ZVtqMYhVk_5-_Lw94G-zwA,newamerican;gluten_free;salad,Veranda Bistro & Bar,False,+15096824250,104 E Woodin Ave,,,Chelan,98816,US,WA,"['104 E Woodin Ave', 'Chelan, WA 98816']",47.8401169262758,-120.019621404119
107,HLHxKHF29dWmnRCTqu41lA,breakfast_brunch,Scalehouse Cafe,False,+15097853505,300 N Washington Way,,,George,98824,US,WA,"['300 N Washington Way', 'George, WA 98824']",47.084258,-119.8555944
108,U4uol8cXz4o3HYUJApCHEA,hotdogs;mexican;tex-mex,Taco Del Mar,False,+15097661204,2707 W Broadway Ave,Ste G,,Moses Lake,98837,US,WA,"['2707 W Broadway Ave', 'Ste G', 'Moses Lake, WA 98837']",47.1047581,-119.3096878
109,RLro4fUCTFmGqboGcyp40A,foodtrucks;mexican;latin,Pupuseria y Taqueria el Faro,False,,398 Basin St SW,,,Ephrata,98823,US,WA,"['398 Basin St SW', 'Ephrata, WA 98823']",47.3166809,-119.5543365
110,qOZZLmLe4UNcdZPFEEXrOQ,wine_bars;newamerican;mediterranean,Friends Riviera Bistro,False,+15097872135,23772 Crescent Bay Dr,Ste 2,,Quincy,98848,US,WA,"['23772 Crescent Bay Dr', 'Ste 2', 'Quincy, WA 98848']",47.22384,-120.0005
111,zDP8ioxj-5cjqqAfs4XgtA,tradamerican;steak,Sporty's Steakhouse,False,+15097659975,507 E Broadway,,,Moses Lake,98837,US,WA,"['507 E Broadway', 'Moses Lake, WA 98837']",47.1335214,-119.273462891579
112,jnEa7utp1OhthsaT7Oxeng,coffee;breakfast_brunch,Shari's Cafe & Pies,False,+15097662070,1820 Kittleson Rd,,,Moses Lake,98837,US,WA,"['1820 Kittleson Rd', 'Moses Lake, WA 98837']",47.1019348984864,-119.243687217779
113,lOOb4k4PiBoJuH3NcPJ6ww,mexican,Tacos Jalisco,False,+15097871466,22 C St SW,,,Quincy,98848,US,WA,"['22 C St SW', 'Quincy, WA 98848']",47.2348327636719,-119.8544921875
114,OWppwnyz8IFCmauhO11ArQ,diners,Desert Diner,False,+15092461390,375 State Hwy 28 W,,,Soap Lake,98851,US,WA,"['375 State Hwy 28 W', 'Soap Lake, WA 98851']",47.369391,-119.49903
115,2xmQD36cG1cdKU1lOMyhuQ,delis;sandwiches;juicebars,The Brick Deli,False,+15097972048,2 B St SE,,,Quincy,98848,US,WA,"['2 B St SE', 'Quincy, WA 98848']",47.23603,-119.853276
116,UQB0bw8GdrKQ21AqWQirGg,tradamerican;bars,Danny Boy Bar & Grill,False,+15094368323,200 Sands Trail Rd,,Gamble Sands,Brewster,98812,US,WA,"['200 Sands Trail Rd', 'Gamble Sands', 'Brewster, WA 98812']",48.0678559315522,-119.64508820274
117,_6MtJCkOy1WzmV5NnmjH2Q,newamerican,Tendrils Restaurant,False,+18887852283,344 Silica Rd NW,,Cave B Estate Winery & Resort,Quincy,98848,US,WA,"['344 Silica Rd NW', 'Cave B Estate Winery & Resort', 'Quincy, WA 98848']",47.098768,-119.996408
118,nZqqhPuc47sHecQq8v-Yvw,restaurants,Bamboo Shoot,False,+15097545539,263 Basin St NW,,,Ephrata,98823,US,WA,"['263 Basin St NW', 'Ephrata, WA 98823']",47.3236,-119.55007
119,AOEbCqta7Q5-4KYC7H0lTA,restaurants,Odessa Drive-In,False,+15099820111,206 W 1st Ave,,,Odessa,99159,US,WA,"['206 W 1st Ave', 'Odessa, WA 99159']",47.3335149,-118.6940354
120,DsQy89gc0RCJHzoZB8DZiw,mexican,El Puente,False,+15096860866,1122 Columbia Ave,,,Bridgeport,98813,US,WA,"['1122 Columbia Ave', 'Bridgeport, WA 98813']",48.0099106,-119.674942
121,A1QhKj3J45b--yyPhUBYog,mexican,Tacos Mi Casa,False,+15097501261,110 E 5th Ave,,,Moses Lake,98837,US,WA,"['110 E 5th Ave', 'Moses Lake, WA 98837']",47.1287346,-119.2761307
122,QczqKI_8NIy6w7ObkwnDXQ,burgers;hotdogs,Burger King,False,+15097541978,1306 Basin Street S W,,,Ephrata,98823,US,WA,"['1306 Basin Street S W', 'Ephrata, WA 98823']",47.30724,-119.56053
123,zsf7ObELANBVhYVOiIBf3w,sportsbars;burgers,The Hi Dam Tavern,False,+15096339888,207 Main St,,,Grand Coulee,99133,US,WA,"['207 Main St', 'Grand Coulee, WA 99133']",47.9405189153838,-119.00233514607
124,0VmEBXJstxOFuTPDj-8Vzw,breakfast_brunch;sandwiches,Brunch Box,False,+15098885461,531 E Woodin Ave,,,Chelan,98816,US,WA,"['531 E Woodin Ave', 'Chelan, WA 98816']",47.83995,-120.00911
125,j-B3CuRvhm2Zb0182bJcsA,breakfast_brunch;tradamerican,Howards Rivers Restaurant,False,+15099232200,245 Lakeshore Dr,,,Pateros,98846,US,WA,"['245 Lakeshore Dr', 'Pateros, WA 98846']",48.0517975,-119.9014825
126,m-y09P42ffUGKVhVN0H2WQ,bbq;southern,The Q-N-More,False,+15097626890,5981 Turnkey Rd NE,,,Moses Lake,98837,US,WA,"['5981 Turnkey Rd NE', 'Moses Lake, WA 98837']",47.17503,-119.3184
127,ko2zWSOlas9QNBt8iPjyZw,mexican,Casa Herradura Family Mexican Restaurant,False,+15097070128,211 N Elder St,Ste A,,Moses Lake,98837,US,WA,"['211 N Elder St', 'Ste A', 'Moses Lake, WA 98837']",47.132133,-119.27
128,Cf4rUnPu__6IdN-zA06COg,mexican,El Mirinda,False,,504 W Valley Rd,,,Moses Lake,98837,US,WA,"['504 W Valley Rd', 'Moses Lake, WA 98837']",47.1387183408003,-119.284446480577
129,qg4BbuMgV9xv3N7qygpROQ,mexican,Sandoval Tacos Y Mariscos,False,,406 Frontage Rd,,,George,98848,US,WA,"['406 Frontage Rd', 'George, WA 98848']",47.0823712893247,-119.860783956548
130,yg_oM3SyrlmmkPNdFFLv_w,restaurants;bowling,Chelan Lanes,False,+15096822251,518 W Manson Rd,,,Chelan,98816,US,WA,"['518 W Manson Rd', 'Chelan, WA 98816']",47.8445358276367,-120.023376464844
131,E_uyzfRa5tfmnlX05-7NBg,mexican,La Hacienda,False,+15097942004,201 E St SE,,,Quincy,98848,US,WA,"['201 E St SE', 'Quincy, WA 98848']",47.23426,-119.84968
132,4gvMyuH9lzEpGa5lGaw7pA,pizza,Pizza Hut,False,+15097544355,1115 Basin St SW,,,Ephrata,98823,US,WA,"['1115 Basin St SW', 'Ephrata, WA 98823']",47.3104073145466,-119.559749811888
133,ePv903CW0_Vt5uZwqTn_tQ,hotdogs;burgers;coffee,McDonald's,False,+15097544915,1010 Basin St SW,,,Ephrata,98823,US,WA,"['1010 Basin St SW', 'Ephrata, WA 98823']",47.31185,-119.5572
134,FKjFchvCA6bAagYYosHfiA,tikibars;seafood;mexican,Tikis Mariscos & Bar,False,+15097977362,812 Central Ave S,,,Quincy,98848,US,WA,"['812 Central Ave S', 'Quincy, WA 98848']",47.23131,-119.85282
135,xhQWTpgdJ7LRIIMsqefLJg,pizza;chicken_wings;sandwiches,Domino's Pizza,False,+15097656555,402 E Broadway Ave,# A,,Moses Lake,98837,US,WA,"['402 E Broadway Ave', '# A', 'Moses Lake, WA 98837']",47.13322,-119.27593
136,CnQPMdIrlhKj7wZ3axNXwA,mexican;bars,Uggie Boo's Basin Street Bistro,False,,48 Basin St NW,,,Ephrata,98823,US,WA,"['48 Basin St NW', 'Ephrata, WA 98823']",47.3214836120605,-119.550765991211
137,fZFlV5KiA8WK48wGxLtOPQ,foodtrucks;mexican,Taqueria Ranchito,False,,409-417 Grand Coulee Hwy,,,Grand Coulee,99133,US,WA,"['409-417 Grand Coulee Hwy', 'Grand Coulee, WA 99133']",47.940832,-119.00609
138,MN6Rg62KhWCVo4LMVVQcjQ,brewpubs;tradamerican,Ten Pin Tap House,False,+15097651265,1165 N Stratford Rd,,,Moses Lake,98837,US,WA,"['1165 N Stratford Rd', 'Moses Lake, WA 98837']",47.144977,-119.277554
139,cWALFzeU-oCjX6th7bAL6w,tacos,Jakes Meats,False,+15097874374,6726 State Route 281 N,,,Quincy,98848,US,WA,"['6726 State Route 281 N', 'Quincy, WA 98848']",47.1864128112793,-119.853965759277
140,hvqjLFepI4wQB6GucTN5LA,cafeteria;mexican,El Charro Express-o,False,,513 E Fifth Ave,,,Moses Lake,98837,US,WA,"['513 E Fifth Ave', 'Moses Lake, WA 98837']",47.1310164034367,-119.271090477705
141,iQKb7IGOnI3KwBVCaaDcpw,burgers;hotdogs;hawaiian,Harrington's Drive In,False,+15097873111,901 Central Ave S,,,Quincy,98848,US,WA,"['901 Central Ave S', 'Quincy, WA 98848']",47.23096,-119.85377
142,PgPcl9NjalAEN6j8ZrSxAw,mexican,Chulita,False,+15096822438,120 N Sanders st,,,Chelan,98816,US,WA,"['120 N Sanders st', 'Chelan, WA 98816']",47.840599,-120.014561
143,3FYReIA7PhQ-8TZvfagkbw,pizza,Papa Murphy's,False,+15097542802,143 1st Avenue NE,,,Ephrata,98823,US,WA,"['143 1st Avenue NE', 'Ephrata, WA 98823']",47.3206277,-119.5474944
144,R-lFlgbImW1t4K7rDNrUzA,pizza,Westside Pizza,False,+15097878777,704 F St SW,,,Quincy,98848,US,WA,"['704 F St SW', 'Quincy, WA 98848']",47.2331168249858,-119.871579058599
145,WUWas53t3PRU3pEYrm7d3w,mexican,Deliciosos Tamales,False,+15097877748,918 13th Ave SW,,,Quincy,98848,US,WA,"['918 13th Ave SW', 'Quincy, WA 98848']",47.2304000854492,-119.875068664551
146,9yd9FC04ddcqY2TmBecHOg,tradamerican,The Den,False,,,,,Ephrata,98823,US,WA,"['Ephrata, WA 98823']",47.3027654231188,-119.564276360871
147,zdScktIT04LKZ701VqwiSQ,mexican,El Rinconsito,False,+15093508870,205 S Pioneer Way,,,Moses Lake,98837,US,WA,"['205 S Pioneer Way', 'Moses Lake, WA 98837']",47.13284,-119.27467
148,T5UUgUUd-l0x8NjoX0u6Zw,mexican,Emperador Azteca,False,+15097654041,117 W 3rd Ave,,,Moses Lake,98837,US,WA,"['117 W 3rd Ave', 'Moses Lake, WA 98837']",47.12956,-119.2787
149,DIT7ACtCIVWZCljhHvNiBw,delis;icecream;breakfast_brunch,Pioneer Park Deli,False,+15093875234,114 W Locust St,,,Waterville,98858,US,WA,"['114 W Locust St', 'Waterville, WA 98858']",47.6472,-120.07282
150,cE-6Gh-MALLfZWKdgMgksw,chinese;buffets,Super China Buffet,False,+15097666633,711 N Stratford Rd,Ste A,,Moses Lake,98837,US,WA,"['711 N Stratford Rd', 'Ste A', 'Moses Lake, WA 98837']",47.13799,-119.2774
151,kYHSlDyBiY-19iDySFXX_g,pizza,Tower Pizza and Sunworks,False,+15097870102,8995 Crescent Bar Rd NW,,Crescent Bar,Quincy,98848,US,WA,"['8995 Crescent Bar Rd NW', 'Crescent Bar', 'Quincy, WA 98848']",47.216969,-119.9934
152,uOOjP9Y_JPSK6aDOomBqhg,tradamerican;breakfast_brunch;diners,Denny's,False,+15097641834,1590 E Yonezawa Blvd,,,Moses Lake,98837,US,WA,"['1590 E Yonezawa Blvd', 'Moses Lake, WA 98837']",47.1060866117477,-119.252281486988
153,n3dkAjJfjAhfoAzHr5ZuvA,golf;venues;tradamerican,The Links at Moses Pointe,False,+15097642275,4524 Westshore Dr NE,,,Moses Lake,98837,US,WA,"['4524 Westshore Dr NE', 'Moses Lake, WA 98837']",47.153662,-119.359473
154,h4Qu1F_2R83PsemLIjEaig,burgers;beerbar,Kodi's Noon Saloon,False,+15099239767,154 Pateros Mall,,,Pateros,98846,US,WA,"['154 Pateros Mall', 'Pateros, WA 98846']",48.052604,-119.900599
155,xPZ18PdX30OTcwcHsz_EdQ,mexican;juicebars,Los Cocos Grill,False,,321 W Broadway Ave,,,Moses Lake,98837,US,WA,"['321 W Broadway Ave', 'Moses Lake, WA 98837']",47.12908,-119.2822
156,RkgCHTtwnDXE1lAMPb4Aag,chicken_wings;hotdogs;chickenshop,KFC,False,+15097654333,411 E 3rd Ave,,,Moses Lake,98837,US,WA,"['411 E 3rd Ave', 'Moses Lake, WA 98837']",47.1321037997188,-119.273595303183
157,E-y0EjTciS_bfxl0CrFESA,chinese,Lins Restaurant,False,+15097664257,601 S Pioneer Way,Ste E,,Moses Lake,98837,US,WA,"['601 S Pioneer Way', 'Ste E', 'Moses Lake, WA 98837']",47.129616,-119.268413
158,zlBaG77JyppSfRcAiSFyPQ,coffee;breakfast_brunch;mexican,Tacos El Rey Espresso,False,+15093618161,407 Melva Ln,,,Moses Lake,98837,US,WA,"['407 Melva Ln', 'Moses Lake, WA 98837']",47.1026594,-119.3136317
159,fITFHMBPD8qc4jROD1HV5w,hotdogs;burgers;coffee,McDonald's,False,+15097667593,1795 Kittleson Rd,,,Moses Lake,98837,US,WA,"['1795 Kittleson Rd', 'Moses Lake, WA 98837']",47.1011000156868,-119.247204065323
160,Ex7Q6Jx_M8Eiv18IgiTaFg,burgers;hotdogs,Carl's Jr,False,+15093505533,1765 Kittleson Rd,,,Moses Lake,98837,US,WA,"['1765 Kittleson Rd', 'Moses Lake, WA 98837']",47.1005560544798,-119.247262244792
161,utiVJc1rBWRl-dHcJLNzBw,chinese,Dragon Express,False,+15097659138,1790 Kittleson Rd,,,Moses Lake,98837,US,WA,"['1790 Kittleson Rd', 'Moses Lake, WA 98837']",47.1014696147364,-119.247261751007
162,mGR39AogtfeLa4ODN5XVLQ,newamerican,Tiger Inn Drive Inn,False,+15099820111,206 W 1st Ave,,,Odessa,99159,US,WA,"['206 W 1st Ave', 'Odessa, WA 99159']",47.3335149,-118.6940354
163,WKBK71WtHxK6-BEVbiwD8g,hotdogs;mexican,Taco Bell,False,+15097546119,1305 Basin St,,,Ephrata,98823,US,WA,"['1305 Basin St', 'Ephrata, WA 98823']",47.307581,-119.561662
164,XpIao3iJSkfKRpn0T2Whjw,mexican,Andaluz Family Mexican Restaurant,False,+15097873213,915 Central Ave S,,,Quincy,98848,US,WA,"['915 Central Ave S', 'Quincy, WA 98848']",47.23061,-119.85377
165,ca73IUtqc4ZFClIPpfIrKQ,mexican,Mi Cocinita Mexican Grill & Cantina,False,,222 Daisy St S,,,Soap Lake,98851,US,WA,"['222 Daisy St S', 'Soap Lake, WA 98851']",47.386769,-119.482833
166,uSU0bsxW57aj920Qtu5XQw,german,Das Kraut Haus,False,+15099822701,11 W 1st,,,Odessa,99159,US,WA,"['11 W 1st', 'Odessa, WA 99159']",47.33312,-118.69135
167,SlYM-MH6RkNtpPdNNzKlow,tradamerican;steak,Jacks at the Market,False,+15097943446,1004 F St SW,,,Quincy,98848,US,WA,"['1004 F St SW', 'Quincy, WA 98848']",47.23278,-119.869654
168,vFxCsi58HoTRnNMNkeD0OQ,mexican;grocery,Mi Pueblo Market,False,+15096892211,613 Main St,,,Brewster,98812,US,WA,"['613 Main St', 'Brewster, WA 98812']",48.099193,-119.786422
169,T9K1eIxfK7SMBzZqouRZ1A,icecream;hotdogs;burgers,Dairy Queen Grill & Chill,False,+15097655933,1117 S Pioneer Way,,,Moses Lake,98837,US,WA,"['1117 S Pioneer Way', 'Moses Lake, WA 98837']",47.1194245993683,-119.266473729244
170,EEV62GzcF6Ux1WFgdTqW4g,pizza,Papa Murphy's,False,+15097652802,611 N Stratford Rd,,,Moses Lake,98837,US,WA,"['611 N Stratford Rd', 'Moses Lake, WA 98837']",47.13722,-119.27797
171,XzQAsNFB4dseyALoSKcIqQ,breakfast_brunch,Deep Water Inn & Brunch Box,False,+15098885461,531 E Woodin Ave,,,Chelan,98816,US,WA,"['531 E Woodin Ave', 'Chelan, WA 98816']",47.83995,-120.00911
172,buAVG02Iw1VDjrmVjh_hjA,hotdogs;sandwiches,Arby's,False,+15097650309,710 N Stratford Rd,,,Moses Lake,98837,US,WA,"['710 N Stratford Rd', 'Moses Lake, WA 98837']",47.13884,-119.27899
173,fD0QvPXn-OvL1vW05T0k5A,mexican;hotdogs,Taco Bell,False,+15097650990,2401 S Maiers Rd,,,Moses Lake,98837,US,WA,"['2401 S Maiers Rd', 'Moses Lake, WA 98837']",47.10184,-119.248413
174,ZwY9c8MqG7SDMpBkgbcDYw,mexican;bars,El Meson,False,+15097972044,900 13th Ave Sw,Ste 9,,Quincy,98848,US,WA,"['900 13th Ave Sw', 'Ste 9', 'Quincy, WA 98848']",47.2309303487804,-119.8750852
175,ooXjatJ6p_xICOm6wc7B6w,wine_bars;steak,The Grand Coulee Grill,False,+15096341694,415 Midway Ave,,,Grand Coulee,99133,US,WA,"['415 Midway Ave', 'Grand Coulee, WA 99133']",47.9409212,-119.0065683
176,MOtVVJnUoQBnQ7TIFw18vw,sandwiches;delis,Quiznos,False,+15097667827,933 N Stratford Rd Ste D,Ste D,,Moses Lake,98837,US,WA,"['933 N Stratford Rd Ste D', 'Ste D', 'Moses Lake, WA 98837']",47.1410949,-119.2782251
177,iUiYsG0WJ1npdBwcjDgi3Q,bars;tradamerican,Sunfire Grill,False,+15097871524,23572 Sunserra Lp NW,Ste 2,,Quincy,98848,US,WA,"['23572 Sunserra Lp NW', 'Ste 2', 'Quincy, WA 98848']",47.220329284668,-119.99543762207
178,Wahu5cfSWgDsV0Okiu9njw,burgers;hotdogs,Burger King,False,+15097645183,2461 Maiers Rd,,,Moses Lake,98837,US,WA,"['2461 Maiers Rd', 'Moses Lake, WA 98837']",47.10238,-119.24819
179,nA2E3nbqtj84MqSgScQkDA,lounges;steak,Paradise Lake Front Restaurant & Lounge,False,+15097659211,3000 W Marina Dr,,,Moses Lake,98837,US,WA,"['3000 W Marina Dr', 'Moses Lake, WA 98837']",47.10307,-119.31734
180,Qp5zHKVBVYABc_f6edmIrw,hotdogs;burgers;coffee,McDonald's,False,+15097666390,825 N Stratford Rd,,,Moses Lake,98837,US,WA,"['825 N Stratford Rd', 'Moses Lake, WA 98837']",47.139971,-119.277955
181,-hQ-HsqnxarjmifGinW6eQ,tradamerican;breakfast_brunch;mexican,Ed's Mudville Breakfast Bar & Grill,False,+15096891376,500 W Main Ave,,,Brewster,98812,US,WA,"['500 W Main Ave', 'Brewster, WA 98812']",48.09944,-119.78241
182,IRc9edODlCBpozxY_RKn9A,nightlife;restaurants,Hang Out Resturaunt and Lounge,False,+15097657502,819 W 3rd Ave,,,Moses Lake,98837,US,WA,"['819 W 3rd Ave', 'Moses Lake, WA 98837']",47.12526,-119.28716
183,53OmqMI3JUKcVwO5joDlyA,hotdogs;burgers,Wendy's,False,+15093505185,1591 East Yonezawa Boulevard,,,Moses Lake,98837,US,WA,"['1591 East Yonezawa Boulevard', 'Moses Lake, WA 98837']",47.1056274240191,-119.252192129333
184,IgVKJCsUwz_LVXjhHqETig,hotdogs;sandwiches;mediterranean,Pita Pit,False,+15097652223,324 W Broadway Ave,,,Moses Lake,98837,US,WA,"['324 W Broadway Ave', 'Moses Lake, WA 98837']",47.1296498180526,-119.281885556797
185,Tz_txhybidpvlcaWz1TJgw,breakfast_brunch;burgers,CJ's on the Course,False,+15094231787,1501 Golf Course Dr,,,Chelan,98816,US,WA,"['1501 Golf Course Dr', 'Chelan, WA 98816']",47.851927,-120.027429
186,V7j-HbXkmZTVM3aklgv2Ww,hotdogs;burgers;hotdog,A&W Restaurant,False,+15097654333,411 E Third Ave,,,Moses Lake,98837,US,WA,"['411 E Third Ave', 'Moses Lake, WA 98837']",47.1321,-119.27353
187,Wl7T8Ix_CBIarYLx-XIpQQ,hotdogs;sandwiches,Arby's,False,+15097645596,2441 S Maiers Rd,,,Moses Lake,98837,US,WA,"['2441 S Maiers Rd', 'Moses Lake, WA 98837']",47.10263,-119.248504
188,lcn2P02EAyzfr2EDmXpVww,mexican,Mexican Grill,False,,623 W Main Ave,,,Brewster,98812,US,WA,"['623 W Main Ave', 'Brewster, WA 98812']",48.0990847583605,-119.785134532784
189,tbZIc41WLbKxIeBErOhOhw,szechuan,China Tang Buffet,False,+15097877200,716 13th Ave SW,,,Quincy,98848,US,WA,"['716 13th Ave SW', 'Quincy, WA 98848']",47.23248,-119.87397
190,KoVaF1jz6cdFy5-4AWwjHA,pizza,Pizza Hut,False,+15097650123,715 S Pioneer Way,,,Moses Lake,98837,US,WA,"['715 S Pioneer Way', 'Moses Lake, WA 98837']",47.1280547470392,-119.268559813499
191,Dubt3qO1JrrZQS1aDSuzKQ,pizza;italian;chicken_wings,Pizza Hut,False,+15097650404,1035 N Stratford Rd,Space G,,Moses Lake,98837,US,WA,"['1035 N Stratford Rd', 'Space G', 'Moses Lake, WA 98837']",47.14247965163,-119.277164469041
192,dOYaBSJZ2QiRVgEfi8IzDw,tacos;seafood,Tacos Chapis,False,+15097636231,212 Royal Anne Dr W,,,George,98824,US,WA,"['212 Royal Anne Dr W', 'George, WA 98824']",61.8039005705845,35.2097504075374
193,Ji1xJgOD62TdfnX2DEXo4g,burgers;hotdogs;coffee,McDonald's,False,+15097874033,24 F St SW,,,Quincy,98848,US,WA,"['24 F St SW', 'Quincy, WA 98848']",47.2330927422235,-119.854316711426
194,Ro4Mi6AcpT-TNqeYQg5q2Q,hotdogs;burgers;tacos,Jack in the Box,False,+15097641581,506 E Wheeler Rd,,,Moses Lake,98837,US,WA,"['506 E Wheeler Rd', 'Moses Lake, WA 98837']",47.1313206,-119.269742667675
195,DziwvKed6-vjaOHtWUhUaQ,sandwiches,Subway,False,+15096826246,108 Apple Blossom Dr,,,Chelan,98816,US,WA,"['108 Apple Blossom Dr', 'Chelan, WA 98816']",47.842569,-119.9875908
196,vR5w1ppAlRWW9xnU9JVwKg,sandwiches,Subway,False,+15097654170,2707 W Broadway,Ste B,,Moses Lake,98837,US,WA,"['2707 W Broadway', 'Ste B', 'Moses Lake, WA 98837']",47.1048304764127,-119.309840939687
197,ZPzM9F8cNRccvuGiEaXmwg,servicestations;convenience;delis;sandwiches,Quincy Deli Mart,False,+15097872875,306 F St SW,,,Quincy,98848,US,WA,"['306 F St SW', 'Quincy, WA 98848']",47.2329999,-119.85904
198,c9wGVdgUX4qdc0eOY7YQIw,mexican,Casa Jalisco,False,+15097872211,201 E St SE,,,Quincy,98848,US,WA,"['201 E St SE', 'Quincy, WA 98848']",47.234261,-119.849579
199,9Lv6WQPOgJZIGlCY6VL1Gw,mexican;hotdogs,Taco Bell,False,+15097666883,934 N Stratford Rd,,,Moses Lake,98837,US,WA,"['934 N Stratford Rd', 'Moses Lake, WA 98837']",47.141779,-119.278598
200,fSjHXNOJzEIzUJMS7OKsQA,hotdogs;burgers;coffee,McDonald's,False,+15096894027,715 Hwy 97,,,Brewster,98812,US,WA,"['715 Hwy 97', 'Brewster, WA 98812']",48.1015384358406,-119.785786271095
201,31rz7DSjVaEGKnBO1IUPow,hotdog;pizza;sandwiches,Mj's,False,+15096336577,163 E Coulee Blvd,,,Electric City,99123,US,WA,"['163 E Coulee Blvd', 'Electric City, WA 99123']",47.9342222624466,-119.033572487533
202,CazaJOVzvS3w4vfETos6ew,coffee;breakfast_brunch;juicebars,Dream Acres Espresso,False,+15097654088,8166 Valley Rd NE,,,Moses Lake,98837,US,WA,"['8166 Valley Rd NE', 'Moses Lake, WA 98837']",47.14261,-119.31757
203,u9id-hxKJ08eSPwMxHNUlw,bakeries;grocery;mexican,La Milpa,False,+15096893737,324 E Main Ave,,,Brewster,98812,US,WA,"['324 E Main Ave', 'Brewster, WA 98812']",48.09955,-119.7801
204,jGFQAECGMdMziY3LDw5Fyg,cafes;rvparks;golf,Odessa Golf and RV Park,False,+15099820093,13080 Hwy 28,,,Odessa,99159,US,WA,"['13080 Hwy 28', 'Odessa, WA 99159']",47.329093,-118.709607
205,15m8WVABt9BnfpHhVZJcmg,sandwiches,Subway,False,+15097669484,1520 S Pioneer Way,,,Moses Lake,98837,US,WA,"['1520 S Pioneer Way', 'Moses Lake, WA 98837']",47.1127366019272,-119.260482938891
206,n324FuikJTvr_HU6P-SwlQ,tradamerican,The Local Grub Pub & Sushi,False,+15096821031,116 E Woodin Ave,,,Chelan,98816,US,WA,"['116 E Woodin Ave', 'Chelan, WA 98816']",47.8398940712214,-120.018815919757
207,6c_eDUdoHu0bOJs0KsslFw,pizza,Papa John's Pizza,False,+15097657272,603 North Strafford Road,,,Moses Lake,98837,US,WA,"['603 North Strafford Road', 'Moses Lake, WA 98837']",47.136857,-119.277921
208,48HdQN88yf79K7Is-W8zwQ,nightlife;restaurants,La Laguna,False,+15096825553,114 N Emerson,,,Chelan,98816,US,WA,"['114 N Emerson', 'Chelan, WA 98816']",47.8404541015625,-120.016456604004
209,7O5TsCOLPSzP55wFuUeUdw,tacos;foodtrucks,El Tacon,False,+15094238805,,,,George,98824,US,WA,"['George, WA 98824']",47.0789451599121,-119.856056213379
210,fMqdhHboJNWOJrchyVLX2A,sandwiches,Subway,False,+15097662068,1725 Kittleson Rd,,,Moses Lake,98837,US,WA,"['1725 Kittleson Rd', 'Moses Lake, WA 98837']",47.1012930478062,-119.248685173349
211,e-7BdYa8wkWg1OMj_v1Q7A,sandwiches,Subway,False,+15097648146,1035 N Stratford Rd,Ste C,,Moses Lake,98837,US,WA,"['1035 N Stratford Rd', 'Ste C', 'Moses Lake, WA 98837']",47.1424188524065,-119.277572932067
212,r0KndmbN4du3ILN_Xk0vfg,sandwiches,Subway,False,+15097544619,1399 SE Blvd,,,Ephrata,98823,US,WA,"['1399 SE Blvd', 'Ephrata, WA 98823']",47.3044780579133,-119.54049417509
213,ozMj1QQQ1gK2_-OZqoOv8w,hotdogs;burgers,Burger King,False,,716 13th Ave SW,Ste C,,Quincy,98848,US,WA,"['716 13th Ave SW', 'Ste C', 'Quincy, WA 98848']",47.23248,-119.87397
214,Rzb5jgjp4I0LHf9fZr0WbQ,beer_and_wine;pizza;convenience,Brewster Marketplace,False,+15096893404,907 State Hwy 97,,,Brewster,98812,US,WA,"['907 State Hwy 97', 'Brewster, WA 98812']",48.1007252896642,-119.788052737811
215,k6rZWfqbBd9gqbBl18J0nw,sandwiches,Subway,False,+15096893404,907 State Hwy 97,,,Brewster,98812,US,WA,"['907 State Hwy 97', 'Brewster, WA 98812']",48.100331,-119.788275
216,z8eNGsuRy9NdmkfHyaLO6w,salvadoran,El Chele,False,+15093508293,212 S Division St,,,Moses Lake,98837,US,WA,"['212 S Division St', 'Moses Lake, WA 98837']",47.13042,-119.27876
217,7Z9GfsC_0VTMlUjGmTeYiQ,pizza;beer_and_wine,The Phoenix Pizza Co,False,+15097852921,771B Chucker Ave SW,,,Quincy,98848,US,WA,"['771B Chucker Ave SW', 'Quincy, WA 98848']",47.075967,-120.0298498
218,dtYCpQrvKvuwCcoi6ZC8TQ,sandwiches,Subway,False,+15097874603,450 F St SW,,,Quincy,98848,US,WA,"['450 F St SW', 'Quincy, WA 98848']",47.2329857582669,-119.861034501606
219,8GpaIH99JCdPL414iqAHAw,burgers;hotdogs,Burger King,False,+15097650212,713 Stratford Rd,,,Moses Lake,98837,US,WA,"['713 Stratford Rd', 'Moses Lake, WA 98837']",47.138701,-119.27779
220,6s9RMKjYsFI6eQpYepp7Ag,servicestations;convenience;delis,George's Country Place,False,+15097852200,400 Frontage Rd,,,Quincy,98848,US,WA,"['400 Frontage Rd', 'Quincy, WA 98848']",47.0830154418945,-119.859931945801
221,rAbcp_jy2_0kv5oxN7t2Cg,tradamerican;bars,Bistro at Benson Viney​ards,False,+15096870313,754 Winesap Ave,,,Manson,98831,US,WA,"['754 Winesap Ave', 'Manson, WA 98831']",47.870599,-120.090335
222,6JitKuKcRNdoIRuG6IOisA,sandwiches,Subway,False,+15097858020,400 S Frontage Rd,,,George,98824,US,WA,"['400 S Frontage Rd', 'George, WA 98824']",47.0825837317089,-119.859906688326
223,y5nGel_Hh9hctt01ZOnQXw,sandwiches,The Far Side Deli,False,+15096820760,115 North Emerson St,,,Chelan,98816,US,WA,"['115 North Emerson St', 'Chelan, WA 98816']",47.8401280939579,-120.016916915774
224,qostkZCg4zPghuN1vSg1bQ,autorepair;convenience;delis,Central Chevron,False,+15097872150,603 Central Ave S,,,Quincy,98848,US,WA,"['603 Central Ave S', 'Quincy, WA 98848']",47.2332,-119.8534949
225,CxzuFogDTle8xc7PgRrs0g,cafes,R & A Cafe,False,+15096332233,514 Birch St,,,Coulee Dam,99116,US,WA,"['514 Birch St', 'Coulee Dam, WA 99116']",47.966159,-118.978325930638
226,PCcpWawWP74Co4OK-dHwpg,tradamerican;bars,Pepper Jack Bar and Grill,False,+15096338283,113 Midway Ave,,,Grand Coulee,99133,US,WA,"['113 Midway Ave', 'Grand Coulee, WA 99133']",47.9411504,-119.0056251
227,9lsX-oV792ACzD94d-0-Aw,chinese;thai,Siam Palace,False,+15096332921,213 Main St,,,Grand Coulee,99133,US,WA,"['213 Main St', 'Grand Coulee, WA 99133']",47.94065,-119.0026
228,S2gnYbxAlqgTZsxCrC98bA,cafes,Voltage Coffee House,False,+15096312035,140 Spokane Way,,,Grand Coulee,99133,US,WA,"['140 Spokane Way', 'Grand Coulee, WA 99133']",47.93938,-119.00441
229,NZcmzFdnjRKqIBnRmjGiew,restaurants,Cafe Espresso,False,+15096331613,416 Midway Ave,,,Grand Coulee,99133,US,WA,"['416 Midway Ave', 'Grand Coulee, WA 99133']",47.9409798,-119.0070846
230,B_IVO9fEbijj6Ju8DEB9Aw,pizza,Hometown Pizza,False,+15096333393,121 Bridgeport Hwy,,,Grand Coulee,99133,US,WA,"['121 Bridgeport Hwy', 'Grand Coulee, WA 99133']",47.9403926,-119.010744769836
231,QMA7x2ejOp7n5wjVIywlag,restaurants,Tee Pee Drive-In,False,+15096332111,211 Midway Ave,,,Grand Coulee,99133,US,WA,"['211 Midway Ave', 'Grand Coulee, WA 99133']",47.9411345660665,-119.005975933554
232,zsf7ObELANBVhYVOiIBf3w,sportsbars;burgers,The Hi Dam Tavern,False,+15096339888,207 Main St,,,Grand Coulee,99133,US,WA,"['207 Main St', 'Grand Coulee, WA 99133']",47.9405189153838,-119.00233514607
233,fZFlV5KiA8WK48wGxLtOPQ,foodtrucks;mexican,Taqueria Ranchito,False,,409-417 Grand Coulee Hwy,,,Grand Coulee,99133,US,WA,"['409-417 Grand Coulee Hwy', 'Grand Coulee, WA 99133']",47.940832,-119.00609
234,ooXjatJ6p_xICOm6wc7B6w,wine_bars;steak,The Grand Coulee Grill,False,+15096341694,415 Midway Ave,,,Grand Coulee,99133,US,WA,"['415 Midway Ave', 'Grand Coulee, WA 99133']",47.9409212,-119.0065683
235,FUp1WeDdtOwpBuHDLtzo1A,bars;tradamerican;seafood,Oystercatcher,False,+13606780683,901 Grace St NW,,,Coupeville,98239,US,WA,"['901 Grace St NW', 'Coupeville, WA 98239']",48.2205555417409,-122.687120290831
236,TZ87LDBKA9IGBq14o2EZWQ,seafood;sandwiches;newamerican,Currents Bistro,False,+13606785480,103 NW Coveland St,P.O Box 1492,,Coupeville,98239,US,WA,"['103 NW Coveland St', 'P.O Box 1492', 'Coupeville, WA 98239']",48.2202708,-122.6887486
237,mvyZOFhIzkOOGdSEWZyVFg,italian;venues;pizza,Ciao,False,+13606780800,701 N Main St,,,Coupeville,98239,US,WA,"['701 N Main St', 'Coupeville, WA 98239']",48.21884,-122.68579
238,Iz2G18PJy-YgB4fGpI5OMg,newamerican;seafood;steak,Front Street Grill,False,+13606822551,20 Front St,,,Coupeville,98239,US,WA,"['20 Front St', 'Coupeville, WA 98239']",48.2212601073724,-122.687683598038
239,3LGuo7pe6AdmHEf1tfh_Ag,cheese;beer_and_wine;sandwiches,Bayleaf,False,+13606786603,101 Coveland St,,,Coupeville,98239,US,WA,"['101 Coveland St', 'Coupeville, WA 98239']",48.2203003163229,-122.688480159513
240,TivY7prg4a2htiV6ezWaYw,tradamerican;divebars,Toby's Tavern,False,+13606784222,8 NW Front St,,,Coupeville,98239,US,WA,"['8 NW Front St', 'Coupeville, WA 98239']",48.2211543100735,-122.687087841332
241,aB-cq3kcaEJzTstNM87fHg,breakfast_brunch;coffee;giftshops,Sunshine Drip,False,+13606826201,306 N Main St,,,Coupeville,98239,US,WA,"['306 N Main St', 'Coupeville, WA 98239']",48.21606,-122.68646
242,ix6xDyLu_8AwEhPVeSuXYw,thai;salad;seafood,Phad Thai,False,+13606786963,602 N Main St,,,Coupeville,98239,US,WA,"['602 N Main St', 'Coupeville, WA 98239']",48.2178955078125,-122.6865234375
243,O4t_eWulNv5-arb_sLJz0g,farmersmarket;cafes;flowers,Lavender Wind Farm,False,+18772427716,15 Coveland St,,,Coupeville,98239,US,WA,"['15 Coveland St', 'Coupeville, WA 98239']",48.22021484375,-122.687980651855
244,sensLYdNjaL69E94buu6Wg,soup;tradamerican;thai,The Lower Loft Eatery,False,+13606782900,12 Front St NE,Ste E,,Coupeville,98239,US,WA,"['12 Front St NE', 'Ste E', 'Coupeville, WA 98239']",48.2213,-122.68715
245,7hxQgJX3SB3cPCPW0nv-bg,hotels;newamerican;lounges,Tyee Restaurant & Motel,False,+13606786616,405 S Main St,,,Coupeville,98239,US,WA,"['405 S Main St', 'Coupeville, WA 98239']",48.20809,-122.68568
246,bdJ0OAd5nCDAoSFdZLHBPA,salad;breakfast_brunch;cafes,West Wind Cafe,False,+13606785151,101 N Main St,Fl 1,Whidbey General,Coupeville,98239,US,WA,"['101 N Main St', 'Fl 1', 'Whidbey General', 'Coupeville, WA 98239']",48.21356,-122.68591
247,BrOBKb39GJH6AIbXM9_0UQ,bakeries;breakfast_brunch;sandwiches,Little Red Hen Bakery,False,+13606825809,4 Front St,,,Coupeville,98239,US,WA,"['4 Front St', 'Coupeville, WA 98239']",48.22114,-122.686226896617
248,ZEvjQvjUJEVsUHEqIHEsaw,seafood,The Cove Coupeville,False,+13606786006,26 Front St NW,,,Coupeville,98239,US,WA,"['26 Front St NW', 'Coupeville, WA 98239']",48.222677,-122.688254
249,eJDN5UEJyCppEldbuLmOEg,pizza;italian;chicken_wings,Pizza Factory,False,+13606783200,107 S Main St,,,Coupeville,98239,US,WA,"['107 S Main St', 'Coupeville, WA 98239']",48.211237871319,-122.685152780376
250,vDxK7VfIKU88g7g5nUCCCw,japanese;salad;fishnchips,Covington Teriyaki,False,+12536396300,27116 167th Pl SE,Ste 116,,Covington,98042,US,WA,"['27116 167th Pl SE', 'Ste 116', 'Covington, WA 98042']",47.3589552270764,-122.117453650451
251,SKBrtmQeCyerKD32_rIwaA,indpak;seafood;diners,Manraj Palace Cuisine of India,False,+12532363536,13003 SE Kent Kangley Rd,Ste 115,,Kent,98030,US,WA,"['13003 SE Kent Kangley Rd', 'Ste 115', 'Kent, WA 98030']",47.357792,-122.167911
252,uKZtE2tKo_uDGeWNsd42xg,mediterranean;mideastern;greek,Olive Tree Mediterranean Restaurant,False,+12536304976,12930 SE Kent Kangley Rd,,,Kent,98030,US,WA,"['12930 SE Kent Kangley Rd', 'Kent, WA 98030']",47.3600108156349,-122.167633582859
253,t1Mw5TQ1t4n_tVABhBoaCQ,sushi;japanese,Trapper's Sushi - Covington,False,+12532770926,16908 SE 269th Pl,Ste 110,,Covington,98042,US,WA,"['16908 SE 269th Pl', 'Ste 110', 'Covington, WA 98042']",47.3605808,-122.1152566
254,EGu0zY1gdCWkCpPPEovaqg,sandwiches;hotdogs;delis,Jersey Mike's Subs,False,+12536393700,17309 SE 270th Pl,Ste A-119,,Covington,98042,US,WA,"['17309 SE 270th Pl', 'Ste A-119', 'Covington, WA 98042']",47.359103,-122.110543
255,xTCItpc-nU1m9S81oN3oNg,pizza;bars;tradamerican,The Rock Wood Fired Pizza,False,+12536307404,17309 SE 270th Pl,,,Covington,98042,US,WA,"['17309 SE 270th Pl', 'Covington, WA 98042']",47.35917,-122.11082
256,ew2Kd4cJ7TEOlwK3vwuW0Q,mediterranean;greek,Gyros House Mediterranean Cuisine,False,+12532774692,17313 SE 270th Pl,,,Covington,98042,US,WA,"['17313 SE 270th Pl', 'Covington, WA 98042']",47.35849,-122.11083
257,oWLJZlO9gRm3-peobQcepg,bagels;cafes;cocktailbars,Bruchelle's Bagel Bistro,False,+12532364373,16340 SE 256th St,Ste 400,,Covington,98042,US,WA,"['16340 SE 256th St', 'Ste 400', 'Covington, WA 98042']",47.3728429276887,-122.123413482587
258,g1qiLrOCuHzn_baKllS1dg,burgers;sandwiches;salad,The Habit Burger Grill,False,+12536305337,12900 SE Kent-Kangley Rd,,,Kent,98030,US,WA,"['12900 SE Kent-Kangley Rd', 'Kent, WA 98030']",47.3591645031588,-122.16905525582
259,Shi44bkp819FS_b2nkjMog,chinese;mongolian,The Iron Grill,False,+12536310101,17017 SE 270th Pl,Ste 101,,Covington,98042,US,WA,"['17017 SE 270th Pl', 'Ste 101', 'Covington, WA 98042']",47.3591275513172,-122.114297747612
260,vNxaCl7CIZPREIH1q1j1Yw,thai,Gor Gai Thai Street Food,False,+12534557177,614 E Main St,,,Auburn,98002,US,WA,"['614 E Main St', 'Auburn, WA 98002']",47.30751,-122.22136
261,DFelALeWbaNYx6oo5tUuQQ,pizza;italian;sandwiches,Rich's 5 Star Pizza,False,+12536397827,13121 SE Kent Kangley Rd,,,Kent,98030,US,WA,"['13121 SE Kent Kangley Rd', 'Kent, WA 98030']",47.3576869,-122.1658895
262,DYQ3VZvB2wYV20r38BPIcQ,grocery;delis;pizza,Foss Grocery & Deli,False,+12536312440,16255 SE 256th St,,,Covington,98042,US,WA,"['16255 SE 256th St', 'Covington, WA 98042']",47.37188,-122.12378
263,8K7pKIo_cGq1aUGgBWUDLg,thai,Benjarong,False,+12536380085,17017 SE 270th Pl,Ste 102,,Covington,98042,US,WA,"['17017 SE 270th Pl', 'Ste 102', 'Covington, WA 98042']",47.35878,-122.11448
264,cl7SWP4PrFFwe4GRGNPajw,chinese,Golden Phoenix Chinese Restaurant,False,+12536303689,16915 SE 272nd St,Ste 106,,Covington,98042,US,WA,"['16915 SE 272nd St', 'Ste 106', 'Covington, WA 98042']",47.3580251,-122.1151735
265,FdbT34s1G8CTOraefmvtfA,thai,Ting Tong Thai Cafe,False,+12538540707,20910 108th Ave SE,,,Kent,98031,US,WA,"['20910 108th Ave SE', 'Kent, WA 98031']",47.41456,-122.196688
266,gFklsYp_hwFgXaUIxHpEag,vietnamese;soup,House of Pho,False,+12536399399,16717 SE 272nd St,Ste 101,,Covington,98042,US,WA,"['16717 SE 272nd St', 'Ste 101', 'Covington, WA 98042']",47.357343,-122.119547
267,ssgIT9mLmayRuJpvYiI-7w,filipino;seafood;vegetarian,Fil Cuisine,False,+12532394429,23843 108th Ave SE,,,Kent,98031,US,WA,"['23843 108th Ave SE', 'Kent, WA 98031']",47.38742,-122.19758
268,hqI7mWE6MDTZ3chjyFH3wA,hotdogs,Chick-fil-A,False,+12536303862,17440 SE 272nd St,,,Covington,98042,US,WA,"['17440 SE 272nd St', 'Covington, WA 98042']",47.3585227,-122.108362784656
269,ETCnuEKHKvDcRZBf4sq2ug,seafood;burgers;australian,Nazes Seafood,False,+12538500079,26220 116th Ave,,,Kent,98030,US,WA,"['26220 116th Ave', 'Kent, WA 98030']",47.36604,-122.18614
270,V2Gxa_rzQfFC8K1V_M1p8g,vietnamese;noodles;soup,Saigon Soul Vietnamese Restaurant,False,+12535206620,24202 104th Ave SE,,,Kent,98030,US,WA,"['24202 104th Ave SE', 'Kent, WA 98030']",47.38479,-122.2015
271,BlI3X2mrQrNyGPvY7NU5eQ,diners;breakfast_brunch;tradamerican,Nikki's Restaurant & Lounge,False,+12532365623,27120 174th Pl SE,,,Covington,98042,US,WA,"['27120 174th Pl SE', 'Covington, WA 98042']",47.3584785,-122.1086731
272,oMHxzCLfQumJ6snbmK5DfA,modern_european;german;polish,Europa,False,+13604694914,29030 216th Ave SE,,,Black Diamond,98022,US,WA,"['29030 216th Ave SE', 'Black Diamond, WA 98022']",47.34124,-122.05349
273,pOzxywLnfstHomNn0pC2Nw,newamerican,JP's Taproom+Grill,False,+12532774354,13038 SE Kent Kangley Rd,,,Kent,98030,US,WA,"['13038 SE Kent Kangley Rd', 'Kent, WA 98030']",47.35858167797,-122.166348036576
274,SwD6_0CzZLvnONnAqpueQQ,hotdogs;pizza,MOD Pizza,False,+12532167025,13030 SE Kent-Kangley Rd,,,Kent,98030,US,WA,"['13030 SE Kent-Kangley Rd', 'Kent, WA 98030']",47.358447,-122.166906
275,zD0hx8zxqXn_vANGAO5BPg,vietnamese;noodles;bubbletea,Cát Sang,False,+12538506414,20512 108th Ave SE,,,Kent,98031,US,WA,"['20512 108th Ave SE', 'Kent, WA 98031']",47.41846,-122.19551
276,AaQj2B8Sd9nLKIo5pNrD-g,thai;vietnamese,Boonmar Pho & Thai Cuisine,False,+12532773067,12912 SE Kent Kangley Rd,,,Kent,98030,US,WA,"['12912 SE Kent Kangley Rd', 'Kent, WA 98030']",47.3599089863481,-122.168693403318
277,2uckdeXYGyUPd5unwz69Lg,seafood;southern,Nana's Southern Kitchen,False,+12532436711,10234 SE 256th St,,,Kent,98030,US,WA,"['10234 SE 256th St', 'Kent, WA 98030']",47.37278,-122.20455
278,qoKoVxM5Y2w_8Yy0IzVhiA,sushi;japanese,Sumo Sushi,False,+14255847034,23745 225th Way SE,Ste101,,Maple Valley,98038,US,WA,"['23745 225th Way SE', 'Ste101', 'Maple Valley, WA 98038']",47.3882564548935,-122.04309271729
279,CGABHF8EYSHBll7xgvCbtQ,cafes;breakfast_brunch;tradamerican,Mary's Fine Foods,False,+12538542650,23641 104th Ave SE,,,Kent,98031,US,WA,"['23641 104th Ave SE', 'Kent, WA 98031']",47.3894455628766,-122.203101249696
280,ZbmITjmupSuK-E0WfK5S_w,pizza;hotdogs,MOD Pizza,False,+14255789093,23916 SE Kent-Kangley Rd,,,Maple Valley,98038,US,WA,"['23916 SE Kent-Kangley Rd', 'Maple Valley, WA 98038']",47.3616512,-122.0223061
281,kNNGXQaaWSPeSH4jlPYY_w,seafood;cajun;chicken_wings,Boiling Crawfish,False,+12532364468,21022 108th Ave SE,,,Kent,98031,US,WA,"['21022 108th Ave SE', 'Kent, WA 98031']",47.413656,-122.1957893
282,Y08KXDbtbNAVORltdIWlTQ,mexican,Puerto Vallarta,False,+12536311399,16717 SE 272nd St,,,Covington,98042,US,WA,"['16717 SE 272nd St', 'Covington, WA 98042']",47.3573417663574,-122.11954498291
283,oPMh7oveZTBc45Cz1ujoGg,pancakes;waffles;tradamerican,The Original Pancake House,False,+14254338144,26820 Maple Valley Hwy,,,Maple Valley,98038,US,WA,"['26820 Maple Valley Hwy', 'Maple Valley, WA 98038']",47.3610869188643,-122.018869109452
284,CXhi6ZZyu3RIwQX20Etx5A,sushi;teppanyaki,Mizu Japanese Steakhouse,False,+12536381317,27149 185th Ave SE,,,Covington,98042,US,WA,"['27149 185th Ave SE', 'Covington, WA 98042']",47.3584785461426,-122.097679138184
285,bHVDDhtjnt9KO7p8xbDyTw,mexican,Los Cabos,False,+12536380189,16751 SE 272nd St,,,Covington,98042,US,WA,"['16751 SE 272nd St', 'Covington, WA 98042']",47.3580045,-122.1173073
286,IWXRF6A3mmD9tEmiE8u1qw,salvadoran,Belen Pupuseria,False,+12538875608,1833 Auburn Way N,,,Auburn,98002,US,WA,"['1833 Auburn Way N', 'Auburn, WA 98002']",47.32398,-122.22244
287,IwUp3l16zUTdMeU3F5TgmA,mexican,Taco Time,False,+12536301249,17211 SE 272nd St,,,Covington,98042,US,WA,"['17211 SE 272nd St', 'Covington, WA 98042']",47.3578205,-122.1118028
288,KMAHhiDKmFnsszK0E0J0BA,halal;pakistani;steak,Maza Grill,False,+12532772566,21000 108th Ave SE,,,Kent,98031,US,WA,"['21000 108th Ave SE', 'Kent, WA 98031']",47.414137,-122.19557094
289,gU7Jfe4ngWuttqD8E1DrnA,thai,Maple Valley Thai Cuisine,False,+14255847437,26810 Maple Valley Black Diamond Rd SE,,,Maple Valley,98038,US,WA,"['26810 Maple Valley Black Diamond Rd SE', 'Maple Valley, WA 98038']",47.36083,-122.02034
290,oQSaZB9QsTNcrli2BKuFzg,indpak,Curry & Kabab,False,+12535202440,10415 SE 240th St,,,Kent,98031,US,WA,"['10415 SE 240th St', 'Kent, WA 98031']",47.38673,-122.2013
291,NRj2E7yZ6n_2xhqaZxpkLw,chinese,San Wok Express,False,+12539813078,20710 108th Ave SE,,,Kent,98031,US,WA,"['20710 108th Ave SE', 'Kent, WA 98031']",47.416573,-122.1964535
292,O_d50G1o5kUt0EDrqnJCeA,thai,Youpa's Thai Kitchen,False,+12539813929,10609 SE 240th St,,,Kent,98031,US,WA,"['10609 SE 240th St', 'Kent, WA 98031']",47.38661,-122.19929
293,4rOrKiMDXr2ZlqzAZd2vSA,vietnamese,Pho T-Q,False,+12538568800,20942 108th Ave SE,,,Kent,98031,US,WA,"['20942 108th Ave SE', 'Kent, WA 98031']",47.4141768151217,-122.195678981794
294,k2LuEsNolb3ZOYWuEGCtDw,japanese;chinese,Happy At the Bay Teriyaki,False,+12536306665,13003 SE Kent Kangley Rd,Ste 114,,Kent,98030,US,WA,"['13003 SE Kent Kangley Rd', 'Ste 114', 'Kent, WA 98030']",47.357576,-122.167975
295,BlcVVk6H1X-OsNzf_5mdJA,mexican;tex-mex;hotdogs,Aceituno's Mexican Food,False,+12539814187,17017 SE 270th Pl,,Ste C 109,Covington,98042,US,WA,"['17017 SE 270th Pl', 'Ste C 109', 'Covington, WA 98042']",47.3588668922855,-122.113956436515
296,Y1D83Sg8c6Ec0y58ap1Pmw,japanese;asianfusion,Tokyo Town Teriyaki,False,+12538544937,21004 108th Ave SE,,,Kent,98031,US,WA,"['21004 108th Ave SE', 'Kent, WA 98031']",47.414067,-122.195648
297,KigV7hA_QFfJdHXtp3qPcA,italian;pizza,Paolo's Italian Restaurant,False,+12538502233,23810 104th Ave SE,,,Kent,98031,US,WA,"['23810 104th Ave SE', 'Kent, WA 98031']",47.38858,-122.20168
298,6RBJvTH-4rIeJUKWj4uCOA,chinese,Lucky Star Chinese Restaurant,False,+12536303638,17615 SE 272nd St,,,Covington,98042,US,WA,"['17615 SE 272nd St', 'Covington, WA 98042']",47.3575299,-122.10669
299,njm8ZpXVIRLVd-nPprwfrQ,indpak;vegetarian;bakeries,Punjab Sweets,False,+12538593236,23617 104th Ave SE,,,Kent,98031,US,WA,"['23617 104th Ave SE', 'Kent, WA 98031']",47.39008,-122.20313
300,Li0IjsYlrICptO_XrO9Kdw,salad;soup;sandwiches,S'Wiched,False,+14254336447,27010 Maple Valley Black Diamond Rd SE,,,Maple Valley,98038,US,WA,"['27010 Maple Valley Black Diamond Rd SE', 'Maple Valley, WA 98038']",47.3597291726151,-122.018448188176
301,BFQiPm29_YiNZ-m0i2JQDQ,japanese;sushi;seafood,California Monster Sushi,False,+12538561135,25620 104th Ave SE,,,Kent,98030,US,WA,"['25620 104th Ave SE', 'Kent, WA 98030']",47.37177,-122.20083
302,K0szsGitxHF9Q1P7uidLTQ,burgers;tradamerican,Red Robin Gourmet Burgers and Brews,False,+12536305441,27193 185th Ave SE,,,Covington,98042,US,WA,"['27193 185th Ave SE', 'Covington, WA 98042']",47.358333,-122.100153
303,0se1s34WpSFtyo3G9Ri6PQ,chinese;vietnamese;seafood,Happy Pho Time,False,+12536311230,16929 SE 270th Pl,Ste B-114,,Covington,98042,US,WA,"['16929 SE 270th Pl', 'Ste B-114', 'Covington, WA 98042']",47.35878,-122.11448
304,fAjamDTg0UdZ4krYMPY20A,mexican,Cafe Rio Mexican Grill,False,+12538937530,12998 SE Kent Kangley Rd,,,Kent,98030,US,WA,"['12998 SE Kent Kangley Rd', 'Kent, WA 98030']",47.3591804753581,-122.167322634062
305,NNSD9Rgq5dzD3LaygKIWBw,sportsbars;burgers;tradamerican,Applebee's Grill + Bar,False,+12538561900,17024 SE 272nd St,,,Covington,98042,US,WA,"['17024 SE 272nd St', 'Covington, WA 98042']",47.358428,-122.114025
306,AkV3fM7zMqJppjSYZkYX4w,mexican,Aguacateros,False,+12538542148,24020 104th Ave SE,,,Kent,98031,US,WA,"['24020 104th Ave SE', 'Kent, WA 98031']",47.3862017691135,-122.202158197761
307,VV7twiXe3BmUvDfdHQY88Q,hotdogs;bars;tradamerican,Hops n Drops,False,+14254331111,26420 Maple Valley Black Diamond Rd SE,,,Maple Valley,98038,US,WA,"['26420 Maple Valley Black Diamond Rd SE', 'Maple Valley, WA 98038']",47.364891,-122.021181
308,SSlQ6nBgJGPUum4euA88AQ,cafes;coffee;wine_bars,Ristrettos Coffee & Wine,False,+14254336455,27203 216th Ave SE,Ste F,,Maple Valley,98038,US,WA,"['27203 216th Ave SE', 'Ste F', 'Maple Valley, WA 98038']",47.357385957071,-122.054843409523
309,64Gqz44dtyW67r-ODCB6HA,pizza;sandwiches,Can-Am Pizza,False,+12538567777,23819 104th Ave SE,,,Kent,98031,US,WA,"['23819 104th Ave SE', 'Kent, WA 98031']",47.3882102966309,-122.202911376953
310,H2HzT-_Fm_x5tEEoqtAPBQ,vietnamese,Pho 7 Simmering Soup,False,+12536305980,13121 SE Kent Kangley Rd,Ste 105,,Kent,98030,US,WA,"['13121 SE Kent Kangley Rd', 'Ste 105', 'Kent, WA 98030']",47.35757,-122.1659
311,uuIbrkerPsg3qY2t3NzOoQ,vietnamese,Pho Dinh,False,+12538048688,2822 Auburn Way N,,,Auburn,98002,US,WA,"['2822 Auburn Way N', 'Auburn, WA 98002']",47.332919,-122.220838
312,MfhrIB5ERjEj5G6SYyj5vg,breakfast_brunch;tradamerican;burgers,IHOP,False,+12536560152,27149 185th Ave SE,,,Covington,98042,US,WA,"['27149 185th Ave SE', 'Covington, WA 98042']",47.35838,-122.09801
313,w8Ca-XRx4Ky8rfueE40k4g,japanese,Himitsu Teriyaki Restaurant,False,+14254130177,22125 SE 237th St,Ste 101,,Maple Valley,98038,US,WA,"['22125 SE 237th St', 'Ste 101', 'Maple Valley, WA 98038']",47.388087,-122.04627
314,UzTZCkvHIZ2B2JOF3V7L_g,chinese,Chopsticks,False,+12533739250,21030 108th Ave SE,,,Kent,98031,US,WA,"['21030 108th Ave SE', 'Kent, WA 98031']",47.41369,-122.19623
315,vovn-4o5O6oCJX58R3wdrQ,mexican,Taqueria El Ranchito,False,+12538542699,26220 116th Ave SE,Ste 106,,Kent,98030,US,WA,"['26220 116th Ave SE', 'Ste 106', 'Kent, WA 98030']",47.3661839,-122.1860659
316,OB6svZI6yKpa8E6cPzqxxA,hotdogs;burgers,Frugals,False,+12533330990,1817 Howard Rd,,,Auburn,98002,US,WA,"['1817 Howard Rd', 'Auburn, WA 98002']",47.292723,-122.2116875
317,edtnju4Unis1ij3HzuZ72g,mexican,La Chata,False,+12532208430,27115 185th Ave SE,,,Covington,98042,US,WA,"['27115 185th Ave SE', 'Covington, WA 98042']",47.3584595,-122.0966415
318,UAMY4uibNpNT5p8P1S0rAA,chinese,Lucky Star,False,+12536308636,12958 SE Kent Kangley Rd,,,Kent,98030,US,WA,"['12958 SE Kent Kangley Rd', 'Kent, WA 98030']",47.3598025505569,-122.166560119337
319,nhnAk8quIDTDUCiPSRBhtg,tradamerican;desserts;cocktailbars,Crockett’s Public House,False,+14253587214,26300 238th Ave SE,,,Maple Valley,98038,US,WA,"['26300 238th Ave SE', 'Maple Valley, WA 98038']",47.37622,-122.02255
320,VCLl0o3CPnq9fpNHQqaPwA,pizza;gluten_free;sportsbars,Farrelli's Wood Fire Pizza,False,+14255847340,26642 Maple Valley Black Diamond Rd SE,Ste G-100,,Maple Valley,98038,US,WA,"['26642 Maple Valley Black Diamond Rd SE', 'Ste G-100', 'Maple Valley, WA 98038']",47.3625189,-122.0201562
321,OUoHaXhe-lJjf8wXEAsWQg,pizza;sandwiches;greek,Athens Pizza & Pasta,False,+12539397444,959 E Main St,,,Auburn,98002,US,WA,"['959 E Main St', 'Auburn, WA 98002']",47.30814,-122.21649
322,q0j7foxTw431CBx9pa4SyA,japanese,Four Corner Teriyaki,False,+14254139538,26927 Maple Valley-Black Diamond Rd,,,Maple Valley,98038,US,WA,"['26927 Maple Valley-Black Diamond Rd', 'Maple Valley, WA 98038']",47.35982,-122.0207839
323,dKHcsoyUe9v_KDGZhDcinw,seafood;hotdogs;fishnchips,Ivar's Seafood Bar,False,+12538544334,25405 104th Ave SE,,,Kent,98030,US,WA,"['25405 104th Ave SE', 'Kent, WA 98030']",47.37447,-122.20297
324,td0ZAPrY5rj29Usf6NvMFg,japanese,Teriyaki Wok,False,+12536311621,16747 SE 272nd St,,,Covington,98042,US,WA,"['16747 SE 272nd St', 'Covington, WA 98042']",47.3580025,-122.1174959
325,nOm4781Zpxw9ElalW06O-Q,indpak,India House Restaurant,False,+12538592100,25410 104th Ave SE,,,Kent,98030,US,WA,"['25410 104th Ave SE', 'Kent, WA 98030']",47.37389,-122.20084
326,VmZyGSwKn24RsaHePQKEVw,seafood;cantonese,Fortune Seafood Restaurant,False,+12538527360,23719 104th Ave SE,,,Kent,98031,US,WA,"['23719 104th Ave SE', 'Kent, WA 98031']",47.389242,-122.2029
327,XZuYohGQInmx2TS_tpO-_g,sandwiches;juicebars;newamerican,Tropical Smoothie Cafe,False,+12532467347,12954 SE Kent Kangley Rd,,,Kent,98030,US,WA,"['12954 SE Kent Kangley Rd', 'Kent, WA 98030']",47.360045,-122.16661167
328,yFFZDNkM2sqIxILwhgW3bw,vietnamese;chinese,Spring Kitchen,False,+14253587994,26636 Maple Valley Black Diamond Rd SE,Ste H200,,Maple Valley,98038,US,WA,"['26636 Maple Valley Black Diamond Rd SE', 'Ste H200', 'Maple Valley, WA 98038']",47.362883,-122.020297
329,Lr4PvYmw8doDo0YsAqTORA,chinese;hotdogs,Panda Express,False,+12536381079,17335 SE 270th Pl,Ste 101,,Covington,98042,US,WA,"['17335 SE 270th Pl', 'Ste 101', 'Covington, WA 98042']",47.35846,-122.11015
330,HI4WF1OjgROk5HyAgFsriw,japanese;chinese;asianfusion,TeriFresh,False,+14255690181,26636 Maple Valley-Black Diamond Rd SE,Ste H300,,Maple Valley,98038,US,WA,"['26636 Maple Valley-Black Diamond Rd SE', 'Ste H300', 'Maple Valley, WA 98038']",47.36316,-122.02017
331,i_eKMzNL0B7YAuZY4TKvBA,indpak;soup;breakfast_brunch,Maharaja Kent Cuisine of India,False,+12534783949,10120 SE 260th St,Ste 121,,Kent,98030,US,WA,"['10120 SE 260th St', 'Ste 121', 'Kent, WA 98030']",47.3698725145259,-122.205175338623
332,x-hy4wm6ENy9JkGgvACC4A,salvadoran,Cielo Restaurant,False,+12533974946,3310 Auburn Way N,Ste J,,Auburn,98002,US,WA,"['3310 Auburn Way N', 'Ste J', 'Auburn, WA 98002']",47.33654,-122.22143
333,yThThDzrL4YFvl-xEyrZzQ,burgers;bars;tradamerican,Firestarter Bar & Grill,False,+12538549464,21008 108th Ave SE,,,Kent,98031,US,WA,"['21008 108th Ave SE', 'Kent, WA 98031']",47.41375,-122.1970185
334,8KoFha4wpKFCiZIN_Oms_Q,japanese,Yummy Teriyaki,False,+12538131966,10844 SE 208th St,,,Kent,98031,US,WA,"['10844 SE 208th St', 'Kent, WA 98031']",47.41603,-122.19556
335,pS8OqsnPHuC94gdcYzxXJw,steak;karaoke;tradamerican,Golden Steer,False,+12538521144,23826 104th Ave SE,,,Kent,98031,US,WA,"['23826 104th Ave SE', 'Kent, WA 98031']",47.38752,-122.20233
336,oP4F_5ncqUBNf5I4b_ZySg,pizza,Frankie's Pizza,False,+14254138111,27317 Maple Valley Black Diamond Rd SE,Ste A101,,Maple Valley,98038,US,WA,"['27317 Maple Valley Black Diamond Rd SE', 'Ste A101', 'Maple Valley, WA 98038']",47.3567877,-122.0206915
337,_GTWAPJCxu4rrhf97MPtSg,italian;pizza,Gino's Bistro,False,+14254336220,23917 SE Kent Kangley Rd,,,Maple Valley,98038,US,WA,"['23917 SE Kent Kangley Rd', 'Maple Valley, WA 98038']",47.360930537525,-122.02249334832
338,iNgNb06ir3zY5EbAWpmGSA,hotdogs;burgers,Carl's Jr,False,+12536302040,17029 SE 272nd St,,,Covington,98042,US,WA,"['17029 SE 272nd St', 'Covington, WA 98042']",47.357781,-122.1145659
339,kHYNuOIB2hlLxQuYCz1JpA,mexican,La Fogata,False,+14254324946,23745 225th Way SE,,,Maple Valley,98038,US,WA,"['23745 225th Way SE', 'Maple Valley, WA 98038']",47.3882408,-122.0424423
340,_1xuE5L2pq0mH8Rgkxbaug,foodtrucks;asianfusion,Slide Thru Food Truck,False,+12064998945,,,,Kent,98032,US,WA,"['Kent, WA 98032']",47.3875198364258,-122.256187438965
341,f0ISdb_3UeRSRYddGtg-VA,chinese;sushi;japanese,Bucks Teriyaki,False,+12538504040,10611 SE 240th St,,,Kent,98031,US,WA,"['10611 SE 240th St', 'Kent, WA 98031']",47.386655,-122.1991798
342,kXZ8sshe9O9De_6oMGsqlQ,newamerican;wine_bars;whiskeybars,Davine Whiskey & Wine Bar,False,+14254338610,23836 222nd Pl SE,Ste 106,,Maple Valley,98038,US,WA,"['23836 222nd Pl SE', 'Ste 106', 'Maple Valley, WA 98038']",47.38791,-122.04377
343,hxjD-3hRqvJJPdv616QWqg,vietnamese,Gia Hung Vietnamese Restaurant,False,+12538544374,25684 104th Ave SE,,,Kent,98030,US,WA,"['25684 104th Ave SE', 'Kent, WA 98030']",47.3709836,-122.2013325
344,hSvAOANo7KG1j-TUFHYIZQ,bars;newamerican,Pla-Mor Bar & Grill,False,+14254326858,21607 SE 272nd St,,,Maple Valley,98038,US,WA,"['21607 SE 272nd St', 'Maple Valley, WA 98038']",47.3578199,-122.05316
345,7W3Yd0kF6gjX1FdhtXssVg,mexican,El Caporal,False,+14254328488,26915 Maple Valley Black Diamond,,,Maple Valley,98038,US,WA,"['26915 Maple Valley Black Diamond', 'Maple Valley, WA 98038']",47.360080714308,-122.02192191374
346,VnY0AIb9kGavpDWBAkHqFw,foodtrucks;mexican,Tacos San Juan,False,+12532599833,23250 Pacific Hwy S,,,Kent,98032,US,WA,"['23250 Pacific Hwy S', 'Kent, WA 98032']",47.3926274607262,-122.294553638402
347,MaRREZWxqnx9Ur4Iqkg20Q,cafes;wine_bars,Vintage Vino and Espresso,False,+14254135164,24081 SE 264th St,Ste N100,,Maple Valley,98038,US,WA,"['24081 SE 264th St', 'Ste N100', 'Maple Valley, WA 98038']",47.3649557,-122.0193917
348,LDdRD_60XN3fIziwDb-JZA,vietnamese,Pho Vy,False,+12532778405,12910 SE Kent Kangley Rd,,,Kent,98030,US,WA,"['12910 SE Kent Kangley Rd', 'Kent, WA 98030']",47.3589420764161,-122.169042375652
349,YJqoWZ2MRlCvMVTGBhnX3g,indpak,Tasty Sweets & Indian Cuisine,False,+12538540309,24202 104th Ave SE,,,Kent,98030,US,WA,"['24202 104th Ave SE', 'Kent, WA 98030']",47.38479,-122.2015
350,2AyCsxFxYAcVjRCUIt6hvw,russian,Alaska N Dumpling,False,+14254336494,23852 SE Kent Kangley Rd,,,Maple Valley,98038,US,WA,"['23852 SE Kent Kangley Rd', 'Maple Valley, WA 98038']",47.361772,-122.02322567
351,gE72EU9sMwTw4-2yJDUd9g,burgers;diners;japanese,Meal Time,False,+14254325630,23636 Witte Rd SE,,,Maple Valley,98038,US,WA,"['23636 Witte Rd SE', 'Maple Valley, WA 98038']",47.3893165588379,-122.046257019043
352,R-XlcU2tTO2ndhMO8J5rEA,sandwiches;hotdogs;delis,Jimmy John's,False,+12536399000,17224 SE 272nd St,Ste 3,,Covington,98042,US,WA,"['17224 SE 272nd St', 'Ste 3', 'Covington, WA 98042']",47.35879,-122.1113
353,_pHrKYyCu4n3ycTu9S6jDw,mexican,El Taco Maestro 2,False,+12539394161,2824 Auburn Way N,,,Auburn,98002,US,WA,"['2824 Auburn Way N', 'Auburn, WA 98002']",47.3329315,-122.2207184
354,Oj6eLjqk01tqAjF0RPRxKg,mexican,Memo's,False,+12532497364,1202 Auburn Way N,,,Auburn,98002,US,WA,"['1202 Auburn Way N', 'Auburn, WA 98002']",47.3187072438327,-122.221131809056
355,219mWervQrsIQkIiY6K8ew,tradamerican,Trotter's Family Restaurant,False,+12538332323,825 Harvey Rd,,,Auburn,98002,US,WA,"['825 Harvey Rd', 'Auburn, WA 98002']",47.3156,-122.2155
356,I64EfNuHMU_KVMvLrTyxFw,mediterranean;mideastern;greek,Alexandria Mediterranean Cuisine,False,+12532208547,10120 SE 260th St,,,Kent,98030,US,WA,"['10120 SE 260th St', 'Kent, WA 98030']",47.3693199157715,-122.205215454102
357,UCHse1wKRmG5PKcLnPyX2A,coffee;breakfast_brunch;juicebars,Gravity Coffee Maple Valley,False,+12534478740,23912 SE Kent Kangley Rd,,,Maple Valley,98038,US,WA,"['23912 SE Kent Kangley Rd', 'Maple Valley, WA 98038']",47.36217,-122.0229
358,_M2xgz2b4FeShmu6vtYalw,japanese,Himitsu Teriyaki,False,+12535206601,10216 SE 256th St,Ste 110,,Kent,98030,US,WA,"['10216 SE 256th St', 'Ste 110', 'Kent, WA 98030']",47.37322,-122.20402
359,gT8NoG2R7xMofYN0aALKVQ,chinese,China Light,False,+14254325027,23714 222nd Pl SE,Ste C,,Maple Valley,98038,US,WA,"['23714 222nd Pl SE', 'Ste C', 'Maple Valley, WA 98038']",47.388822,-122.044004
360,56W1gsZt-ysR8dcCUGNmHg,sportsbars;tradamerican;poolhalls,Carriage Square Sports Bar & Grill,False,+12538503749,25626 102nd Pl SE,,,Kent,98030,US,WA,"['25626 102nd Pl SE', 'Kent, WA 98030']",47.371886,-122.204052
361,_wTWSLAGVHP5mP1ZlFUGXA,japanese,King's Teriyaki,False,+12538503112,25803 104th Ave SE,,,Kent,98030,US,WA,"['25803 104th Ave SE', 'Kent, WA 98030']",47.37112,-122.20342
362,T7Haqn-uqThfNXvo_ImVEw,mexican,El Rinconsito,False,+12539396627,2101 Auburn Way N,,,Auburn,98002,US,WA,"['2101 Auburn Way N', 'Auburn, WA 98002']",47.32584,-122.22196
363,TH-GMXoL3m34rmaTCJNUCg,indpak;halal,Kamal Da Dhaba,False,+12535200712,10225 SE 256th St,,,Kent,98030,US,WA,"['10225 SE 256th St', 'Kent, WA 98030']",47.37223,-122.20415
364,B6Mfm0os-4Ezap2UktKxYw,hotdogs;burgers,Wendy's,False,+12536303095,16703 Se 272Nd St,,,Covington,98042,US,WA,"['16703 Se 272Nd St', 'Covington, WA 98042']",47.357755,-122.119035
365,04EUhs-oHTwxfXj_l_DX1A,pizza;desserts;chicken_wings,Chicago's Pizza With A Twist,False,+12535202990,23623 104th Ave SE,,,Kent,98031,US,WA,"['23623 104th Ave SE', 'Kent, WA 98031']",47.38989,-122.20313
366,ZvGLepkwp4mBmQES-v2Cww,mediterranean;halal;persian,Reyhoon Grill,False,+18329466714,23609 104th Ave SE,Ste 102,,Kent,98031,US,WA,"['23609 104th Ave SE', 'Ste 102', 'Kent, WA 98031']",47.3903899,-122.20292
367,HVb6DJ10qCNKFxPGEbkFBA,delis;sandwiches;hotdogs,Jersey Mike's Subs,False,+12532772034,12964 Kent Kangley Rd,,,Kent,98030,US,WA,"['12964 Kent Kangley Rd', 'Kent, WA 98030']",47.360084,-122.166258
368,yTuBRn9xK7n_Cu0IObt2tg,chinese,Lucky Chopsticks,False,+14254329968,24015 SE Kent Kangley Rd,Ste A,,Maple Valley,98038,US,WA,"['24015 SE Kent Kangley Rd', 'Ste A', 'Maple Valley, WA 98038']",47.3612967,-122.0206967
369,ExKz-clNpYsfnDMw0HKdmg,burgers;hotdogs;coffee,McDonald's,False,+12536394331,17431 S 272nd St,,,Covington,98042,US,WA,"['17431 S 272nd St', 'Covington, WA 98042']",47.357886,-122.108461
370,75KaUFno4TQjb4YeJQmkQA,indpak,Golden Indian Curry House,False,+12538521425,20938 108th Ave SE,,,Kent,98031,US,WA,"['20938 108th Ave SE', 'Kent, WA 98031']",47.41423,-122.19567
371,hlOXqwEsXA-DPwy6mehLJQ,sushi;bars,Tokyo Monster Sushi,False,+14253587203,27317 Maple Valley Black Diamond Rd SE,,,Maple Valley,98038,US,WA,"['27317 Maple Valley Black Diamond Rd SE', 'Maple Valley, WA 98038']",47.35598,-122.0202
372,MPQypfJJEnQVGc5yyafyJw,tradamerican;diners;breakfast_brunch,Shari's Cafe & Pies,False,+12536312456,12990 SE Kent Kangley Rd,,,Kent,98030,US,WA,"['12990 SE Kent Kangley Rd', 'Kent, WA 98030']",47.3589270783811,-122.168105877936
373,6AmdJ8R_CPANmnjP3AlNNg,mexican;bars,Sin Pancho Mexican Restaurant & Bar,False,+12532368450,4202 Auburn Way N,Ste 1,,Auburn,98002,US,WA,"['4202 Auburn Way N', 'Ste 1', 'Auburn, WA 98002']",47.3445771799797,-122.221950946528
374,Kdik6_uFEkloBlWLY_yNEQ,mexican,Hacienda Del Mar Mexican Restaurant,False,+14254135838,27433 Maple Valley Black Diamond Rd SE,,,Maple Valley,98038,US,WA,"['27433 Maple Valley Black Diamond Rd SE', 'Maple Valley, WA 98038']",47.3553799,-122.02005
375,NovTpAyB8yVP5IWft6dlMw,chinese;japanese,Teriyaki Wok,False,+12532880289,820 Harvey Rd,Ste B,,Auburn,98002,US,WA,"['820 Harvey Rd', 'Ste B', 'Auburn, WA 98002']",47.31592,-122.21444
376,JT94c5wmPCexPfQ2lugJ1g,southern;chickenshop;comfortfood,Ezell's Famous Chicken,False,+12538544535,25616 102nd Pl SE,,,Kent,98030,US,WA,"['25616 102nd Pl SE', 'Kent, WA 98030']",47.3720512,-122.2041931
377,oQBBWPdsON0d9y1PQEMTUg,pizza,Papa Murphy's,False,+12536302234,16783 South East 272nd Street,Suite B,,Covington,98042,US,WA,"['16783 South East 272nd Street', 'Suite B', 'Covington, WA 98042']",47.35783,-122.11562
378,lW4Qz5Cft_wRoxG00ql7XQ,japanese,Ichi 2 Teriyaki,False,+12536397700,13215 SE 240th St,Ste B,,Kent,98042,US,WA,"['13215 SE 240th St', 'Ste B', 'Kent, WA 98042']",47.3862800598145,-122.164695739746
379,jPZan-83FxRBN-oMdZ9J5g,burgers;tradamerican,Red Robin Gourmet Burgers and Brews,False,+12538508101,25207 104th Ave SE,,,Kent,98031,US,WA,"['25207 104th Ave SE', 'Kent, WA 98031']",47.3759546,-122.2028266
380,tMLv8_lffbfWu6gtqkC-rA,pizza;chicken_wings;sandwiches,Domino's Pizza,False,+12536300000,16929 SE 270th Pl,Ste B-102,,Covington,98042,US,WA,"['16929 SE 270th Pl', 'Ste B-102', 'Covington, WA 98042']",47.3593309,-122.1153061
381,IUNnefzNxL_WS0ZS-zze9g,chinese;buffets,Super Buffet,False,+12538138889,10210 SE 260th St,,,Kent,98030,US,WA,"['10210 SE 260th St', 'Kent, WA 98030']",47.36946,-122.20421
382,nv8-Pa3IB1k-R0ML4MCneQ,pizza;indoor_playcenter;arcades,Chuck E. Cheese,False,+12538139000,25817 104th Ave SE,,,Kent,98031,US,WA,"['25817 104th Ave SE', 'Kent, WA 98031']",47.37069,-122.20341
383,rQTjSdEaKS0p9zaniOOm9w,desserts;mideastern,Alhamdani,False,+12532364359,10603 SE 240th St,,,Kent,98031,US,WA,"['10603 SE 240th St', 'Kent, WA 98031']",47.38661,-122.19957
384,zOktPdLN33aHORDsSgIuSQ,burgers,Herfy's,False,+12538593292,25666 104th Ave SE,,,Kent,98030,US,WA,"['25666 104th Ave SE', 'Kent, WA 98030']",47.37094,-122.20189
385,sF0OCHt8QtR-hQBYOjVqYw,foodstands;catering,Naija Buka,False,+12066029413,,,,Kent,98031,US,WA,"['Kent, WA 98031']",47.4105661,-122.1966209
386,eDJjak8rP36bK7HPPJAd_w,sportsbars;tradamerican,Casey's Grill and Sports Bar,False,+12532364137,24228 104th Ave SE,Ste 105,,Kent,98030,US,WA,"['24228 104th Ave SE', 'Ste 105', 'Kent, WA 98030']",47.38434,-122.201432
387,jKkXZjO4KwAQcsfyqSUs-Q,tradamerican;sportsbars;burgers,Applebee's Grill + Bar,False,+12535203888,25442 104th Ave SE,,,Kent,98030,US,WA,"['25442 104th Ave SE', 'Kent, WA 98030']",47.373744,-122.2019
388,R4MvFOp1OSBQ56OQI7CZ0w,mexican,Azteca Mexican Restaurant,False,+12538520210,25633 102nd Pl SE,,,Kent,98030,US,WA,"['25633 102nd Pl SE', 'Kent, WA 98030']",47.3715744018555,-122.205238342285
389,9eO_Ch4iTYfQnJTrfM87Dw,tradamerican;diners,Stocktons Restaurant & Spirits,False,+14254326880,23220 Maple Valley Black Diamond Rd SE,,,Maple Valley,98038,US,WA,"['23220 Maple Valley Black Diamond Rd SE', 'Maple Valley, WA 98038']",47.3931732177734,-122.044746398926
390,TOKN4oybY0wGxzgnIQnI2g,chinese;japanese,Ringo Wok,False,+12537374865,12722 SE 312th St,,,Auburn,98092,US,WA,"['12722 SE 312th St', 'Auburn, WA 98092']",47.323174,-122.172114
391,uJSDjQ1fMe8Qa4fG__rTiA,mexican,Taqueria El Asadero,False,+12538520620,25415 104th Ave SE,,,Kent,98030,US,WA,"['25415 104th Ave SE', 'Kent, WA 98030']",47.37403,-122.20294
392,Dgcx_9jO1SvAgBeIWeJq6w,cafes,Sweet Notes Cafe,False,+12532364294,12966 SE Kent-Kangley Rd,,,Kent,98030,US,WA,"['12966 SE Kent-Kangley Rd', 'Kent, WA 98030']",47.360251,-122.166067
393,lnPh1nnj6dayCsbr3d-Irw,salad;soup;sandwiches,Panera Bread,False,+14253100012,26535 Maple Valley Black Diamond Rd SE,,,Maple Valley,98038,US,WA,"['26535 Maple Valley Black Diamond Rd SE', 'Maple Valley, WA 98038']",47.3638709613372,-122.022185325623
394,uB2y0aE-RLNFO2AMmWePwA,sportsbars;tradamerican,Rusty Elbow Pub & Grub,False,+12532467657,15423 SE 272nd St,,,Kent,98042,US,WA,"['15423 SE 272nd St', 'Kent, WA 98042']",47.3575050783511,-122.135210596025
395,vO7LhcOtmteuWYe9poRJTg,pizza,Little Caesars Pizza,False,+12536303022,15423 SE 272nd St,,,Kent,98042,US,WA,"['15423 SE 272nd St', 'Kent, WA 98042']",47.357666015625,-122.135589599609
396,wCIOmmJW_Qajhqa51NGKYQ,thai,Benjarong Thai Cuisine,False,+14253587291,24061 SE 264th St,,,Maple Valley,98038,US,WA,"['24061 SE 264th St', 'Maple Valley, WA 98038']",47.3650093,-122.0201721
397,WHXPQ-0HPV4u1LIV954MgA,japanese,Soho Teriyaki,False,+12538541977,10423 SE 240th St,,,Kent,98031,US,WA,"['10423 SE 240th St', 'Kent, WA 98031']",47.386656,-122.201276
398,e2iyXzquBnQ07fQHtnTB7Q,sportsbars;tradamerican;poolhalls,Clubhouse Sports Bar and Grill,False,+12532770500,10432 Kent Kangley Rd,,,Kent,98030,US,WA,"['10432 Kent Kangley Rd', 'Kent, WA 98030']",47.37213,-122.19936
399,8SBaHppp1K_tzsSAenegcw,restaurants,A-Plus Terriyaki,False,+12536395100,17017 SE 270th Pl,,,Covington,98042,US,WA,"['17017 SE 270th Pl', 'Covington, WA 98042']",47.3591275513172,-122.114297747612
400,nhPxfp5gCpz3u4CnfX7w6g,tradamerican;pubs,Druids Tap House,False,+12536381200,29925 207th Ave SE,,,Kent,98042,US,WA,"['29925 207th Ave SE', 'Kent, WA 98042']",47.3326133,-122.0659375
401,NNOf7v9JbHP4vCtOCqfjAA,mexican,El Charro Mexican Restaurant,False,+12538548428,10218 SE 240th St,,,Kent,98031,US,WA,"['10218 SE 240th St', 'Kent, WA 98031']",47.3875007629395,-122.203712463379
402,IhxGiOydT-wmrXeTCEjf_w,mexican;foodtrucks,Tacos El Tajin,False,+12537970142,Boren Ave N Republican St,,,Seattle,98109,US,WA,"['Boren Ave N Republican St', 'Seattle, WA 98109']",47.6232358,-122.3430295
403,PpFBaSLANvO4_QVu65HSBw,burgers;hotdogs;tacos,Jack in the Box,False,+12536315393,16757 SE 272nd St,,,Kent,98042,US,WA,"['16757 SE 272nd St', 'Kent, WA 98042']",47.3577898902428,-122.116655409336
404,Xg9_STGCyd_vv8xnXRE8EQ,tradamerican;sportsbars,Draft Choice Sports Bar & Grill,False,+12537351715,32201 Kent Black Diamond Rd SE,,,Auburn,98092,US,WA,"['32201 Kent Black Diamond Rd SE', 'Auburn, WA 98092']",47.31268,-122.09589
405,oKp6Xi3ZhoN3Wg9YoDovWw,hotdogs;mexican,Taco Bell,False,+12536395860,17425 SE 272nd St.,,,Covington,98042,US,WA,"['17425 SE 272nd St.', 'Covington, WA 98042']",47.35819,-122.10915
406,noKD_fbvD8IfROPQ9FeT2g,pizza;italian;chicken_wings,Pizza Hut,False,+12536395560,13003 SE Kent Kangley Rd,,,Kent,98030,US,WA,"['13003 SE Kent Kangley Rd', 'Kent, WA 98030']",47.357714,-122.168029
407,su21XIkEAjb2hS4Ireo_0A,pizza,Papa John's Pizza,False,+14254137777,"26906 Black Diamond Rd Se, Bldg J",,,Maple Valley,98038,US,WA,"['26906 Black Diamond Rd Se, Bldg J', 'Maple Valley, WA 98038']",47.360363,-122.020117
408,vjwWHjwP-Zv73qX9O_7zaw,pizza,Slice Of Italy,False,+12538529999,26200 116th Ave SE,,,Kent,98030,US,WA,"['26200 116th Ave SE', 'Kent, WA 98030']",47.366346,-122.186726
409,603OI9fy4Nw9Hf1qwMA28Q,sportsbars;tradamerican,The Lost Dutchman,False,+14254320729,22125 SE 237th St,Ste 106,,Maple Valley,98038,US,WA,"['22125 SE 237th St', 'Ste 106', 'Maple Valley, WA 98038']",47.388116,-122.045855
410,vnSJ2eoGfWcG3OSjrm0yTw,hotdogs;delis;sandwiches,Jersey Mike's Subs,False,+14254336755,26300 238th Ln SE,Ste 101,,Maple Valley,98038,US,WA,"['26300 238th Ln SE', 'Ste 101', 'Maple Valley, WA 98038']",47.366294,-122.022574
411,CUaAgMe1lEOmL74fRlz6Ag,italian;sandwiches;tapasmallplates,Magic Flavors,False,+12539816590,23636 104th Ave SE,,Save U More Supermarket,Kent,98031,US,WA,"['23636 104th Ave SE', 'Save U More Supermarket', 'Kent, WA 98031']",47.389344,-122.201412
412,q6G0GlNaugQOoPYOg8Q3Yg,chicken_wings;hotdogs,Popeyes Louisiana Kitchen,False,+12538561173,23920 102nd Ave SE,,,Kent,98031,US,WA,"['23920 102nd Ave SE', 'Kent, WA 98031']",47.3874257936709,-122.204541
413,DAiL9sF6T5bg96y33WeaIg,indpak;desserts;vegetarian,Novelty Sweets,False,+12064959471,26035 104th Ave SE,,,Kent,98030,US,WA,"['26035 104th Ave SE', 'Kent, WA 98030']",47.367633,-122.20492
414,IcIvi_MoRVqaEDwnx1po0Q,cafes;tradamerican;diners,Seven Diner,False,+14254324795,22607 SE 216th Way,,,Maple Valley,98038,US,WA,"['22607 SE 216th Way', 'Maple Valley, WA 98038']",47.40619,-122.03832
415,aORJnG8Wj7u9j1_utzlMSQ,hotdogs;burgers;icecream,Sonic Drive-In,False,+12538520579,26046 116th Ave SE,,,Kent,98030,US,WA,"['26046 116th Ave SE', 'Kent, WA 98030']",47.3675802,-122.1860782
416,_27bBfWp-jnoE-DohPibtw,indpak;halal;foodtrucks,Spice On Curve,False,+18456295066,22415 Benson Rd SE,Apt F204,,Kent,98031,US,WA,"['22415 Benson Rd SE', 'Apt F204', 'Kent, WA 98031']",47.401089,-122.200091
417,ULy1i24k7paL2liRwf55cg,tradamerican;bars,Bogey's Public House,False,+12538761957,29630 Green River Rd SE,,,Auburn,98092,US,WA,"['29630 Green River Rd SE', 'Auburn, WA 98092']",47.336233,-122.206556
418,ItZHgvpA8PQRuicvtFsmIg,newamerican,Big Foot Java,False,+12533338859,802 14th St NE,,,Auburn,98002,US,WA,"['802 14th St NE', 'Auburn, WA 98002']",47.32009,-122.21956
419,N16fET725jgFcb1RpeBsrg,indpak,Jot Indian Sweets & Restaurant,False,+12062275145,25445 104th Ave SE,,,Kent,98030,US,WA,"['25445 104th Ave SE', 'Kent, WA 98030']",47.37346,-122.20287
420,fGkNkCjzdM4NRzujXc5aDg,mexican,Taco Time,False,+12538508898,25649 104th Ave SE,,,Kent,98030,US,WA,"['25649 104th Ave SE', 'Kent, WA 98030']",47.3711244,-122.2026888
421,EEmakxDeGQ-zYgKfinWmUg,sandwiches;hotdogs;delis,Jimmy John's,False,+12539393000,1835 Auburn Way N,Ste. A,,Auburn,98002,US,WA,"['1835 Auburn Way N', 'Ste. A', 'Auburn, WA 98002']",47.3245429,-122.2220241
422,xyyvSTxBhJ0rETVRgep0Vw,sandwiches,Subway,False,+12536381603,12925 SE Kent Kangley Rd,Ste 104,,Kent,98030,US,WA,"['12925 SE Kent Kangley Rd', 'Ste 104', 'Kent, WA 98030']",47.3582872,-122.1684342
423,sclzNezF9gmr7bl5hwQSYA,hotdogs;chicken_wings;chickenshop,KFC,False,+12536395860,17425 SE 272nd St,,,Covington,98042,US,WA,"['17425 SE 272nd St', 'Covington, WA 98042']",47.3578940566669,-122.109324309804
424,PlDmfyMcmROcjTv-CC-OBw,grocery;importedfood;delis,Taste of Europe,False,+12538527737,24225 104th Ave SE,,,Kent,98030,US,WA,"['24225 104th Ave SE', 'Kent, WA 98030']",47.3841658176281,-122.202829560444
425,Lp1TXXBIjBJNaNsfN5QvVw,sandwiches;hotdogs,Arby's,False,+12536309242,17037 SE 272nd St,,,Kent,98042,US,WA,"['17037 SE 272nd St', 'Kent, WA 98042']",47.35778,-122.11385
426,6xm3Vb3lr9uQ8wRXFoeO6g,sushi,Fred Meyer - Sushi,False,,26520 Maple Valley Black Diamond Rd SE,,,Maple Valley,98038,US,WA,"['26520 Maple Valley Black Diamond Rd SE', 'Maple Valley, WA 98038']",47.363716,-122.019319
427,JiUUhioXKNpVZdloICEs-g,hotdogs,Village Inn,False,+14254325630,23636 Witte Rd SE,,,Maple Valley,98038,US,WA,"['23636 Witte Rd SE', 'Maple Valley, WA 98038']",47.389317,-122.046265
428,zKvkmr8sh16iJP6fbZu_qw,japanese,Mom's Teriyaki,False,+12538040436,1115 E Main St,,,Auburn,98002,US,WA,"['1115 E Main St', 'Auburn, WA 98002']",47.30845,-122.21421
429,gpIR2GcksSGSrk_ROW6IOQ,foodtrucks;laotian,TukTuk Mobile Feast,False,+14257701209,6970 California Ave SW,Ste 301,,Seattle,98136,US,WA,"['6970 California Ave SW', 'Ste 301', 'Seattle, WA 98136']",47.540944,-122.3867952
430,nbkSFijocm7BJWigXn36cQ,korean,Soho Teriyaki,False,+12537355431,1209 Auburn Way N,,,Auburn,98002,US,WA,"['1209 Auburn Way N', 'Auburn, WA 98002']",47.31898,-122.22192
431,VX2v0CmUXKTVdJaPdgyS9g,burgers;hotdogs;coffee,McDonald's,False,+12538338011,1531 Auburn Way N,,,Auburn,98002,US,WA,"['1531 Auburn Way N', 'Auburn, WA 98002']",47.321623432,-122.222099515002
432,CvMyD3KX_4FkYsU7nPt3IA,foodtrucks;soulfood;bbq,Hamhock Jones,False,+12538887600,6101 Steilacomm Blvd SW,,,Lakewood,98499,US,WA,"['6101 Steilacomm Blvd SW', 'Lakewood, WA 98499']",47.1768071439433,-122.518364
433,HIe3Kvl81bQ-WV_LPMZHIg,mediterranean,Shanasheel Restaurant,False,+12532772016,23729 104th Ave SE,,,Kent,98031,US,WA,"['23729 104th Ave SE', 'Kent, WA 98031']",47.389094,-122.203105
434,gHUZNeLg8KtMo-TNJiRuow,sandwiches,Subway,False,+14254130170,27203 216th Ave SE,Ste 4,,Maple Valley,98038,US,WA,"['27203 216th Ave SE', 'Ste 4', 'Maple Valley, WA 98038']",47.3577682180771,-122.05523638452
435,ekq3Slj14bto4LDkcAt2gA,pizza,Papa John's Pizza,False,+12536302222,13304 S.E. 240Th St,,,Kent,98042,US,WA,"['13304 S.E. 240Th St', 'Kent, WA 98042']",47.38744,-122.16355
436,-YHHMSQEiUuwraoFXkTx9g,hotdogs;burgers;coffee,McDonald's,False,+14254137031,26924 Maple Valley Hwy,,,Maple Valley,98038,US,WA,"['26924 Maple Valley Hwy', 'Maple Valley, WA 98038']",47.359947,-122.020234
437,eaZa3uPebZ9Y4txsH_gi_A,pizza;chicken_wings;sandwiches,Domino's Pizza,False,+12538523030,26019 104th Ave SE,Ste 104,,Kent,98030,US,WA,"['26019 104th Ave SE', 'Ste 104', 'Kent, WA 98030']",47.3682,-122.20293
438,1gAVQR_8DmgGkVTPphCrSA,sandwiches,Subway,False,+12536303716,17432 SE 270th Pl,,,Covington,98042,US,WA,"['17432 SE 270th Pl', 'Covington, WA 98042']",47.3607699228407,-122.107925879141
439,9lnmPrbwCK1kIrGYDileeg,pizza;chicken_wings;sandwiches,Domino's Pizza,False,+14254323000,23714 222nd Pl SE,,,Maple Valley,98038,US,WA,"['23714 222nd Pl SE', 'Maple Valley, WA 98038']",47.3888967186213,-122.044389992952
440,Gb-L6f6jeIPC_jHUzCYT1A,foodtrucks;waffles,Puft Bubble Waffles,False,+14255058868,360 Corporate Dr,,,Tukwila,98188,US,WA,"['360 Corporate Dr', 'Tukwila, WA 98188']",47.4514658,-122.2565495
441,O5YSdWhLPZNQI98rae0KXw,pizza,Papa Murphy's,False,+12539397163,721 M Street North East,Suite 107,,Auburn,98002,US,WA,"['721 M Street North East', 'Suite 107', 'Auburn, WA 98002']",47.31482,-122.2147
442,xgnv7lbGeoDkeP1DwwI4ig,hotdogs;burgers;coffee,McDonald's,False,+12538561310,10715 SE 240th St,,,Kent,98031,US,WA,"['10715 SE 240th St', 'Kent, WA 98031']",47.3863431,-122.1975683
443,9oapD2KhLzdVyT385EZX5g,pizza,Pizza Hut,False,+12536391900,26636 Maple Valley Black Diamond Rd,,,Maple Valley,98038,US,WA,"['26636 Maple Valley Black Diamond Rd', 'Maple Valley, WA 98038']",47.3747912,-122.024753384656
444,9FUHahljhBVnZ0mS0-arlQ,pizza,Papa Murphy's,False,+14254137272,23880 SE Kent Kangley Road,,,Maple Valley,98038,US,WA,"['23880 SE Kent Kangley Road', 'Maple Valley, WA 98038']",47.362026340865,-122.02317320838
445,s0I4RzoT5hv0OwTlt0lJEg,mexican;hotdogs,Baja Burrito,False,+12533518888,1702 Auburn Way N,,,Auburn,98002,US,WA,"['1702 Auburn Way N', 'Auburn, WA 98002']",47.32409,-122.22032
446,CxdTfN1wpNK0W1qj5W2QZA,halal;pakistani;bbq,Lahori Kabab n Grill,False,+12532771000,26220 116th Ave SE,Ste 107,,Kent,98030,US,WA,"['26220 116th Ave SE', 'Ste 107', 'Kent, WA 98030']",47.365998,-122.18636
447,uvyDrno0tDHcmNGV2AtQNA,grocery;mexican;importedfood,El Mercado Latino,False,+12538877785,1807 Howard Rd,,,Auburn,98002,US,WA,"['1807 Howard Rd', 'Auburn, WA 98002']",47.2927284,-122.2128372
448,OzHlNNHg5EhzTsUfVS_QKg,pizza,Papa Murphy's,False,+12538593591,20528 108th Avenue South East,,,Kent,98031,US,WA,"['20528 108th Avenue South East', 'Kent, WA 98031']",47.41785,-122.19555
449,WB4PdCFKudtnW-Cp6mRBqA,hotdogs;chicken_wings;chickenshop,KFC,False,+12538523603,10414 SE 260th St,,,Kent,98030,US,WA,"['10414 SE 260th St', 'Kent, WA 98030']",47.3692128267806,-122.201969286419
450,OSyRlZ4ckm1f8mKrGgcDpQ,tacos;foodtrucks,Sazon Tacos,False,+12067172827,7301 15th Ave NW,,,Seattle,98117,US,WA,"['7301 15th Ave NW', 'Seattle, WA 98117']",47.68155,-122.37709
451,R7IRjW_ii_a8-ZwUVhrATw,burgers;hotdogs;coffee,McDonald's,False,+14254322863,23225 Maple Valley Hwy,,,Maple Valley,98038,US,WA,"['23225 Maple Valley Hwy', 'Maple Valley, WA 98038']",47.3932072277331,-122.046389579773
452,llpWeucbKGClU61BhQKKvw,tradamerican;bars,Four Corners Bar & Grill,False,+14254321004,26905 Maple Valley Black Diamond Rd SE,,,Maple Valley,98038,US,WA,"['26905 Maple Valley Black Diamond Rd SE', 'Maple Valley, WA 98038']",47.3606531723689,-122.021810202256
453,AmdJ3n_GKN-eeRdniSTfgw,sandwiches,Subway,False,+12536302984,27237 172nd Ave SE,Ste 111,,Covington,98042,US,WA,"['27237 172nd Ave SE', 'Ste 111', 'Covington, WA 98042']",47.357316,-122.112727
454,JnmXxuYuNPT0poCVzXFMZA,mexican;foodtrucks,Taqueria La Flama,False,+14255249409,19044 108th Ave SE,,,Renton,98055,US,WA,"['19044 108th Ave SE', 'Renton, WA 98055']",47.43072,-122.19669
455,8bJVEufOW9wTfhXEcTeb_Q,burgers;hotdogs,Burger King,False,+14253587182,26630 State Route 169,,,Maple Valley,98038,US,WA,"['26630 State Route 169', 'Maple Valley, WA 98038']",47.3619740718575,-122.020678968456
456,-lW2TGEhmPMjOk8uEbifNA,hotdogs;icecream;burgers,Dairy Queen Grill & Chill,False,+14254326005,23924 SE Kent Kangley Rd,,,Maple Valley,98038,US,WA,"['23924 SE Kent Kangley Rd', 'Maple Valley, WA 98038']",47.3616453742723,-122.02164888382
457,Rn8ZOQuovEL62-V-2JfAJA,pizza,Papa Murphy's,False,+12538543509,10429 SE Kent Kangley Road,,,Kent,98030,US,WA,"['10429 SE Kent Kangley Road', 'Kent, WA 98030']",47.37184,-122.20033
458,RvuSGgsDR8S9RjFpfwzqNQ,burgers;hotdogs;coffee,McDonald's,False,+12538525810,10125 SE 256th St,,,Kent,98030,US,WA,"['10125 SE 256th St', 'Kent, WA 98030']",47.3720130404441,-122.205156157734
459,h_qZKnO9bag8l-Y6d90OUQ,mexican;tex-mex;hotdogs,Taco Del Mar,False,+14255847189,26565 Maple Valley-Black Diamond Rd SE #J803,Ste J803,,Maple Valley,98038,US,WA,"['26565 Maple Valley-Black Diamond Rd SE #J803', 'Ste J803', 'Maple Valley, WA 98038']",47.3630976,-122.0235522
460,Cghlydb69CyQ9HM2E2ZHpw,hotdogs;burgers,Burger King,False,+12538543949,"25240 104 Ave, S E",,,Kent,98030,US,WA,"['25240 104 Ave, S E', 'Kent, WA 98030']",47.37485,-122.20185
461,4NVlzM2bkd7eoTbu3b4VOQ,hotdogs;icecream;burgers,Dairy Queen Grill & Chill,False,+12538547626,25206 104th Ave SE,,,Kent,98030,US,WA,"['25206 104th Ave SE', 'Kent, WA 98030']",47.3760101127872,-122.2018512
462,9ZQ2Lo7aDw7Kkf8PfuBXrA,tradamerican;breakfast_brunch,516 Bar And Grill,False,+14254338442,23846 SE Kent Kangley Rd,,,Maple Valley,98038,US,WA,"['23846 SE Kent Kangley Rd', 'Maple Valley, WA 98038']",47.361586,-122.0233351
463,X97UPSzTuJWQq8NnqY9Tjg,hotdogs;chicken_wings;chickenshop,KFC,False,+12539391090,1002 Auburn Way,,,Auburn,98002,US,WA,"['1002 Auburn Way', 'Auburn, WA 98002']",47.3171760489494,-122.221487569513
464,l-FIpEfR5znwZMh7yNaC9A,mexican,Taco Time,False,+14254134477,23315 Maple Valley/Black Diamond Rd,,,Maple Valley,98038,US,WA,"['23315 Maple Valley/Black Diamond Rd', 'Maple Valley, WA 98038']",47.39271,-122.04645
465,M7RC4Evx9nbygAsR4lEOug,sandwiches,Subway,False,+12539396905,12722 SE 312th,,,Auburn,98092,US,WA,"['12722 SE 312th', 'Auburn, WA 98092']",47.3228847354479,-122.1726112
466,xsSwQkhM9kKTDFsvCejHTw,delis;intlgrocery,Eurasia Deli House,False,+12535200870,25650 102nd Pl SE,,,Kent,98030,US,WA,"['25650 102nd Pl SE', 'Kent, WA 98030']",47.37104,-122.20426
467,n53fqXjThq9bPfRySVOm-Q,pizza,Little Caesars Pizza,False,+12535205546,10607 Se 240th St,,,Kent,98031,US,WA,"['10607 Se 240th St', 'Kent, WA 98031']",47.38661,-122.19939
468,eCSWvDBaQUHotsUJzBKUJQ,hotdogs;mexican,Taco Bell,False,+14254131190,23848 225th St. S.E.,,,Maple Valley,98038,US,WA,"['23848 225th St. S.E.', 'Maple Valley, WA 98038']",47.387607,-122.041948
469,lFsfLHHWe6Y02p8VIZA9_A,thai;noodles;chicken_wings,CHOKE DEE Thai Street,False,+12532774652,27237 172nd Ave SE 115,,,Covington,98042,US,WA,"['27237 172nd Ave SE 115', 'Covington, WA 98042']",47.35733,-122.11271
470,wt661NDqLmvvL14v1QrtWg,sandwiches,Subway,False,+12537351135,1702 Auburn Way N,Ste E,,Auburn,98002,US,WA,"['1702 Auburn Way N', 'Ste E', 'Auburn, WA 98002']",47.3244227135763,-122.220989841269
471,GhkH9EnNIcSPMbODGjTWTw,pizza,Papa John's Pizza,False,+12533336400,1403 Auburn Way South,,,Auburn,98002,US,WA,"['1403 Auburn Way South', 'Auburn, WA 98002']",47.295516,-122.215888
472,Rk9nPrgp4wcQFrtZM9mEfw,pizza,Pizza Hut,False,+12539394099,1243 Auburn Way S,,,Auburn,98002,US,WA,"['1243 Auburn Way S', 'Auburn, WA 98002']",47.2964531130801,-122.2169226
473,4b6IcsGDthoF-9RJbeD4Gw,foodtrucks;dimsum,Panda Dim Sum,False,+15107985991,6855 176th Ave,,,Redmond,98052,US,WA,"['6855 176th Ave', 'Redmond, WA 98052']",47.66676,-122.1064934
474,GmGVIk4rj95-p7E2OGDeaA,burgers;korean;vietnamese,Pho U plus Burger,False,+12537375611,12722 SE 312th St,Ste E,,Auburn,98092,US,WA,"['12722 SE 312th St', 'Ste E', 'Auburn, WA 98092']",47.32322,-122.17337
475,0lhGXwe8k8K4VuyV7qwNPQ,mexican,Baja Burrito,False,+12532772047,10234 SE 256th St,,,Kent,98030,US,WA,"['10234 SE 256th St', 'Kent, WA 98030']",47.3728438937896,-122.204441
476,ybPM8quqjs1e-5U5gr1Icw,sandwiches,Subway,False,+14255847397,22141 SE 237th,Ste 201,,Maple Valley,98038,US,WA,"['22141 SE 237th', 'Ste 201', 'Maple Valley, WA 98038']",47.38896,-122.04496
477,zhs1EyQgzH7riIQ8Vr_aHQ,hotdogs;mexican,Taco Bell,False,+12538568011,23920 104th Avenue S.E.,,,Kent,98031,US,WA,"['23920 104th Avenue S.E.', 'Kent, WA 98031']",47.387297,-122.202341
478,6n6xInKy7J8NkAAtFegxwA,food_court,Costco Food Court,False,+12537961017,27520 Covington Way SE,,,Covington,98042,US,WA,"['27520 Covington Way SE', 'Covington, WA 98042']",47.3550498179927,-122.121389172971
479,cm-6LeFPq9_oVmrvNERqPQ,hotdogs;chicken_wings;chickenshop,KFC,False,+14254131190,23848 225th St SE,,,Maple Valley,98038,US,WA,"['23848 225th St SE', 'Maple Valley, WA 98038']",47.387799,-122.041774
480,UKgOYL1G8yHY-AIoQHIKKw,icecream;hotdogs,Dairy Queen,False,+12539392960,902 S Auburn Way,,,Auburn,98002,US,WA,"['902 S Auburn Way', 'Auburn, WA 98002']",47.3003258096128,-122.222727388144
481,o95gqS15WMNq0dB9ldF15Q,burgers;hotdogs;tacos,Jack in the Box,False,+12538521529,20746 108th Ave SE,,,Kent,98031,US,WA,"['20746 108th Ave SE', 'Kent, WA 98031']",47.4161195,-122.1965245
482,C4L0vrACl-mwlmFgse9DrA,sandwiches,Subway,False,+12538544588,25625 104th Avenue Se St,,,Kent,98030,US,WA,"['25625 104th Avenue Se St', 'Kent, WA 98030']",47.3715073472651,-122.203201114418
483,1_fDOjCrCjvLYykMh1wFrA,cantonese,Aberdeen Cafe,False,,701 M St NE,Ste 103,,Auburn,98002,US,WA,"['701 M St NE', 'Ste 103', 'Auburn, WA 98002']",47.3147888183594,-122.21435546875
484,FL28rIDkMYfjbYeDDfKDgg,tradamerican;breakfast_brunch,Varsity Grill,False,+12533335000,14330 SE Husky Way,,Washington National Golf Club,Auburn,98092,US,WA,"['14330 SE Husky Way', 'Washington National Golf Club', 'Auburn, WA 98092']",47.3079899,-122.15014
485,ua32zB2-EEKFeggWeGSFgg,sandwiches,Subway,False,+12538501595,20932 108th Ave S,Space B2 Bldg B,Orchard Plaza Shopping Center,Kent,98031,US,WA,"['20932 108th Ave S', 'Space B2 Bldg B', 'Orchard Plaza Shopping Center', 'Kent, WA 98031']",47.4144679693222,-122.195547424188
486,AObGP1JfRrqRYqP7ZsKCJg,foodtrucks;tacos,Taqueria Rancho 12,False,+12539547881,22240 SE 272nd St,,,Maple Valley,98038,US,WA,"['22240 SE 272nd St', 'Maple Valley, WA 98038']",47.35836,-122.044
487,4fkmUBjhnIi8sZAK0NmTSw,chinese,Fry Chicken Chinese Cuisine,False,,12722 SE 312th St,Ste H,,Auburn,98092,US,WA,"['12722 SE 312th St', 'Ste H', 'Auburn, WA 98092']",47.322823,-122.171943097
488,1upK0FVE7Jv0Rcm_5HHYhQ,vietnamese;noodles,Vietnamese Noodle Bar,False,,25644 104th Ave SE,,,Kent,98030,US,WA,"['25644 104th Ave SE', 'Kent, WA 98030']",47.3712616,-122.2017136
489,00ZR7jTV2nQEcMtbUDuTKQ,hotdogs;burgers;tacos,Jack in the Box,False,+12538543044,23911 104th Ave SE,,,Kent,98031,US,WA,"['23911 104th Ave SE', 'Kent, WA 98031']",47.3878513806553,-122.202660441399
490,e7t_U9zcZkAJKrIKsRGxmw,chicken_wings,Kings Of Wings,False,,10225 SE 256th St,,,Kent,98030,US,WA,"['10225 SE 256th St', 'Kent, WA 98030']",47.37223,-122.20415
491,IHUtVIJjwYgELcXa6cq1Bw,indpak,Janpath Indian Cuisine,False,+12064466406,23609 104th Ave Se,Ste 102,,Kent,98031,US,WA,"['23609 104th Ave Se', 'Ste 102', 'Kent, WA 98031']",47.39039,-122.20292
492,4N6PpKyAvqIAsKhyJ6wrHA,fishnchips,Skipper's Fish & Chips Kent,False,+12535200712,10225 SE 256th St,,,Kent,98030,US,WA,"['10225 SE 256th St', 'Kent, WA 98030']",47.37223,-122.20415
493,u1-eRSiZYzwUinKa-Q4E_g,foodtrucks;mexican,Taqueria San Luis,False,+12532871077,"1204 E Main St, Shell Gas Station",,,Auburn,98002,US,WA,"['1204 E Main St, Shell Gas Station', 'Auburn, WA 98002']",47.307789,-122.212933
494,5b-eO_aYHK3AoZDkaTTu9g,mexican;hotdogs;tex-mex,Taco Del Mar,False,+12537357835,12722 SE 312th St,Ste D,,Auburn,98092,US,WA,"['12722 SE 312th St', 'Ste D', 'Auburn, WA 98092']",47.32322,-122.17337
495,uuaHTaDjEBptxrQ0eP5MQw,foodtrucks;mexican,El Gran Taco,False,+12063801965,,,,King County,98006,US,WA,"['King County, WA 98006']",47.56313,-122.12024
496,o6cZzmFgSw4Eh84vKW7g2w,chickenshop,Chester’s Chicken,False,,1204 E Main St,,,Auburn,98002,US,WA,"['1204 E Main St', 'Auburn, WA 98002']",47.30773,-122.21295
497,YFzJ5H3m_AyFv1q2CmlTfg,chinese,Super Teriyaki,False,+12538760707,1811 Howard Rd,,,Auburn,98002,US,WA,"['1811 Howard Rd', 'Auburn, WA 98002']",47.292429,-122.212017
498,zkiqEy_JKOFxnoebU9Le_Q,sandwiches,Subway,False,+14255847235,26565 Maple Vly,Diamond Road,,Maple Valley,98038,US,WA,"['26565 Maple Vly', 'Diamond Road', 'Maple Valley, WA 98038']",47.3632349559913,-122.023396350347
499,plhzvs8pQ9eylgiZ3fWTSw,hotdog;foodtrucks,Gypsy Doggs,False,+13606740173,,,,Auburn,98092,US,WA,"['Auburn, WA 98092']",47.29034,-122.18447
500,5Vdg-qFw6Zvle9gPtOHcvg,mexican,Lopez Taqueria Cocina,False,+12539394784,1833 Auburn Way N,Ste O,,Auburn,98002,US,WA,"['1833 Auburn Way N', 'Ste O', 'Auburn, WA 98002']",47.32398,-122.22244
501,JelY5b8jdafyrznDwto_7w,sandwiches,Subway,False,+12532778409,13308 SE 240th St,Ste D-5,,Kent,98042,US,WA,"['13308 SE 240th St', 'Ste D-5', 'Kent, WA 98042']",47.387622,-122.163512
502,tIkQugkKsNbG5HTgQr4ymA,cafes,Corner Cafe,False,+15096362233,100 Watson St NW,,,Creston,99117,US,WA,"['100 Watson St NW', 'Creston, WA 99117']",47.7588218817765,-118.520231969946
503,fJqF5B7ZCDRL8Mpzuc_Alg,burgers;hotdogs,Billy Burgers Drive In,False,+15096475651,804 NE Main Ave,,,Wilbur,99185,US,WA,"['804 NE Main Ave', 'Wilbur, WA 99185']",47.7575451,-118.6971428
504,sS2On-3hP_zTXyV41GE8Dw,bars;smokehouse;tradamerican,Tribune Smokehouse,False,+15097258509,502 Morgan St,,,Davenport,99122,US,WA,"['502 Morgan St', 'Davenport, WA 99122']",47.65419,-118.14854
505,say-wVa3tIWBwfU_wVVQTw,tradamerican,Doxie's Dine In,False,+15096475544,523 NW Main Ave,,,Wilbur,99185,US,WA,"['523 NW Main Ave', 'Wilbur, WA 99185']",47.760217,-118.711305
506,7GiTJ3ZRNs5d0gFMHILjdA,mexican,El Ranchito,False,+15097252030,1325 Morgan Ave,,,Davenport,99122,US,WA,"['1325 Morgan Ave', 'Davenport, WA 99122']",47.653702,-118.160141
507,wKRJRvzQmiMCsILQ5FASlQ,outdoorgear;tradamerican,Fort Spokane Store & Restaurant,False,+15097255783,45371 St Rt 25 N,,,Davenport,99122,US,WA,"['45371 St Rt 25 N', 'Davenport, WA 99122']",47.9024081199652,-118.295198524902
