,id,alias,name,is_closed,phone,address1,address2,address3,city,zip_code,country,state,display_address,latitude,longitude
0,J0CFrI-XQEK1d31pAO-lpQ,assistedliving;memorycare,Aegis Living Bellevue,FALSE,14252983979,148 102nd Ave SE,,,Bellevue,98004,US,WA,"['148 102nd Ave SE', 'Bellevue, WA 98004']",47.60897,-122.20324
1,P6YYWxMZJ2uWuRzTw8_K8g,assistedliving,Aegis Living Mercer Island,FALSE,12064875290,7445 SE 24th St,,,Mercer Island,98040,US,WA,"['7445 SE 24th St', 'Mercer Island, WA 98040']",47.5883,-122.23945
2,JhIeCDekqr0ad3JnVWiQ_g,assistedliving,Island House Assisted Living,FALSE,12062370003,7810 SE 30th St,,,Mercer Island,98040,US,WA,"['7810 SE 30th St', 'Mercer Island, WA 98040']",47.58408737,-122.2326813
3,QzzQVNULzHN3vkJE1KmSMQ,homehealthcare;personalcare;assistedliving,Care 4 All,FALSE,14252389960,,,,Snohomish,98296,US,WA,"['Snohomish, WA 98296']",47.86456299,-122.1438751
4,gTLDnYaK8cNk7IeSzGa7gg,homehealthcare;assistedliving;skillednursing,A1 Senior Care Advisors,FALSE,14253245592,16301 NE 8th St,Ste 121,,Bellevue,98008,US,WA,"['16301 NE 8th St', 'Ste 121', 'Bellevue, WA 98008']",47.616568,-122.123054
5,cMAtF1h3aHsxYfbxsiU5Mw,homehealthcare;assistedliving;rehabilitation_center,Magnolia Care,FALSE,14255990889,1113 E John St,,,Seattle,98102,US,WA,"['1113 E John St', 'Seattle, WA 98102']",47.61973,-122.31749
6,g37Y_WmgPcJI9bf_kPV2Og,assistedliving;retirement_homes;skillednursing,Covenant Living at the Shores,FALSE,12063168042,9150 Fortuna Dr,,,Mercer Island,98040,US,WA,"['9150 Fortuna Dr', 'Mercer Island, WA 98040']",47.58242566,-122.2163997
7,KfuN7rGIkNeHtR06k84B0Q,homehealthcare;assistedliving;personalcare,Visiting Angels,FALSE,14258284500,12020 113th Ave NE,"Bldg C, Ste 180",,Kirkland,98034,US,WA,"['12020 113th Ave NE', 'Bldg C, Ste 180', 'Kirkland, WA 98034']",47.708045,-122.189759
8,qrC1cMnKjoqc8Kd72dPGUA,assistedliving;homehealthcare;retirement_homes,Bonney Lake Comfort Care,FALSE,12062262778,7035 Locust Ave E,,,Bonney Lake,98391,US,WA,"['7035 Locust Ave E', 'Bonney Lake, WA 98391']",47.19239,-122.181
9,W_zb8I5DPoexD7TVPn5V3A,assistedliving;homehealthcare;hospice,Haven in Allyn,FALSE,13602770636,180 E Wheelwright St,,,Allyn,98524,US,WA,"['180 E Wheelwright St', 'Allyn, WA 98524']",47.38088226,-122.8366394
10,0dZNhaJqvBvWD2dRjwd0Rg,retirement_homes;assistedliving;memorycare,Silverado Bellingham Memory Care Community,FALSE,13607466675,4400 Columbine Dr,,,Bellingham,98226,US,WA,"['4400 Columbine Dr', 'Bellingham, WA 98226']",48.7997941,-122.4971972
11,XfVLzvC5Rk3YxiwVVAKU1Q,assistedliving,Highgate Senior Living,FALSE,13606711459,155 E Kellogg Rd,,,Bellingham,98226,US,WA,"['155 E Kellogg Rd', 'Bellingham, WA 98226']",48.794728,-122.483224
12,Er_ACN1CG-wEDsi8bzZvWQ,assistedliving,Pacifica Retirement Residence,FALSE,16045359194,2525 King George Highway,,,Surrey,V4P 0C8,CA,BC,"['2525 King George Highway', 'Surrey, BC V4P 0C8', 'Canada']",49.04778,-122.79683
13,AteRhqvjFukRZz1w78kNWw,retirement_homes;assistedliving;memorycare,Cordata Court,FALSE,13607158822,4415 Columbine Dr,,,Bellingham,98226,US,WA,"['4415 Columbine Dr', 'Bellingham, WA 98226']",48.79915,-122.49789
14,QmNSlqpdrrkZV1vwDITDtg,retirement_homes;assistedliving,Spring Creek by Bonaventure,FALSE,13606841731,223 East Bakerview Rd,,,Bellingham,98226,US,WA,"['223 East Bakerview Rd', 'Bellingham, WA 98226']",48.78876,-122.48141
15,9JbzvqsYk7qJHU5LOLXflw,assistedliving,Menno Hospital,FALSE,16048597631,32945 Marshall Road,,,Abbotsford,V2S 1K1,CA,BC,"['32945 Marshall Road', 'Abbotsford, BC V2S 1K1', 'Canada']",49.0384,-122.3119
16,v9Kq2tUJnQSKYjcjxH00iA,retirement_homes;assistedliving,Woodway Assisted Living,FALSE,13603124865,1712 E Maplewood Ave,,,Bellingham,98225,US,WA,"['1712 E Maplewood Ave', 'Bellingham, WA 98225']",48.77273,-122.49391
17,A6CcJwb6IhbnM9CPSr3Pmg,assistedliving,Homeplace Special Care,FALSE,13607557000,210 N Skagit St,,,Burlington,98233,US,WA,"['210 N Skagit St', 'Burlington, WA 98233']",48.47655487,-122.3185272
18,ZcyaRKN6ZochTkiRWob_oQ,assistedliving,The Bridge at Mount Vernon,FALSE,13604160400,301 S Laventure Rd,,,Mount Vernon,98274,US,WA,"['301 S Laventure Rd', 'Mount Vernon, WA 98274']",48.41925,-122.31391
19,BV8S0zMdMirgOmXXlkcOFg,skillednursing;assistedliving,Life Care Center - Mount Vernon,FALSE,13604244258,2120 E Division St,,,Mount Vernon,98274,US,WA,"['2120 E Division St', 'Mount Vernon, WA 98274']",48.42028,-122.31392
20,4EuVJYhTnCReSbBB5ueikw,assistedliving;memorycare;retirement_homes,Sunrise of Lynn Valley,FALSE,16049041226,980 Lynn Valley Road,,,North Vancouver,V7J 3V7,CA,BC,"['980 Lynn Valley Road', 'North Vancouver, BC V7J 3V7', 'Canada']",49.33269,-123.04723
21,r4nEc8JdYpOvZPQr9kiqHQ,homehealthcare,Always Best Care Senior Services,FALSE,17789453010,133 W 17th Street,,,North Vancouver,V7M 1V5,CA,BC,"['133 W 17th Street', 'North Vancouver, BC V7M 1V5', 'Canada']",49.323924,-123.073835
22,s4FcuR0nRM1MR4ZCBedMaQ,assistedliving,Village At the Harbour,FALSE,13603787144,543 Spring St,,,Friday Harbor,98250,US,WA,"['543 Spring St', 'Friday Harbor, WA 98250']",48.531578,-123.020482
23,BznC7RRghSYQDMFC9pcLVQ,childcare;nonprofit;assistedliving,The Cridge Centre For the Family,FALSE,12503848058,1307 Hillside Avenue,,,Victoria,V8T 0A2,CA,BC,"['1307 Hillside Avenue', 'Victoria, BC V8T 0A2', 'Canada']",48.4404517,-123.3505124
24,vFdQbHppqTsjGZaQa3a3jQ,retirement_homes;assistedliving,Bonaventure of East Wenatchee,FALSE,15095938489,50 29th St NW,,,East Wenatchee,98802,US,WA,"['50 29th St NW', 'East Wenatchee, WA 98802']",47.45259,-120.29885
25,BNJuDIeQnwjGe9c3_jCTCA,assistedliving;emergencymedicine;rehabilitation_center,Columbia Basin Hospital,FALSE,15097544631,200 Nat Washington Way,,,Ephrata,98823,US,WA,"['200 Nat Washington Way', 'Ephrata, WA 98823']",47.3144582,-119.5465262
26,IXycGTscXVi0DqcqItAhog,assistedliving,Blossom Creek,FALSE,15094925954,1740 Madison St,,,Wenatchee,98801,US,WA,"['1740 Madison St', 'Wenatchee, WA 98801']",47.425089,-120.345292
27,wSgkEWdaaP-I-m3wzrPWKg,assistedliving,Kadie Glen Assisted Living,FALSE,15098849555,451 N Baker Ave,,,East Wenatchee,98802,US,WA,"['451 N Baker Ave', 'East Wenatchee, WA 98802']",47.4108345,-120.2861523
28,2GMy17I6rUarNOeuQnIWRA,retirement_homes;assistedliving,Colonial Vista,FALSE,15096633337,601 Okanogan Ave,,,Wenatchee,98801,US,WA,"['601 Okanogan Ave', 'Wenatchee, WA 98801']",47.41463,-120.31298
29,OwZKuw2rQ5MDGObQ8Z9yMQ,hospice;assistedliving;personalcare,Family to Family Senior Care,FALSE,14256447321,25633 SE 30th St,,,Sammamish,98075,US,WA,"['25633 SE 30th St', 'Sammamish, WA 98075']",47.5818,-121.99693
30,pAOJB2p7GSYgxlAOxCAYdg,assistedliving;retirement_homes;memorycare,Village Concepts of Issaquah - Spiritwood at Pine Lake,FALSE,14253139100,3607 228th Ave SE,,,Issaquah,98029,US,WA,"['3607 228th Ave SE', 'Issaquah, WA 98029']",47.5767362,-122.0363158
31,GfZQbRDi_G-j0xxmqQ1e3w,assistedliving;memorycare,Patriot's Glen,FALSE,14253731161,1640 148th Ave SE,,,Bellevue,98007,US,WA,"['1640 148th Ave SE', 'Bellevue, WA 98007']",47.594931,-122.141952
32,sBqhwnBwWa5pOIJGNBU94A,retirement_homes;assistedliving,Merrill Gardens at Renton Centre,FALSE,14252721193,104 Burnett Ave S,,,Renton,98057,US,WA,"['104 Burnett Ave S', 'Renton, WA 98057']",47.48251,-122.20734
33,3BF9hV6fEUcP9RK_7t7hyA,assistedliving;memorycare,Aegis Living Issaquah,FALSE,14252983969,780 NW Juniper St,,,Issaquah,98027,US,WA,"['780 NW Juniper St', 'Issaquah, WA 98027']",47.5399,-122.04842
34,1n8fGUOQV_Dtexa5Uu4y3g,eldercareplanning;assistedliving,Bellevue Senior Care,FALSE,14254445752,235 154th Pl SE,,,Bellevue,98007,US,WA,"['235 154th Pl SE', 'Bellevue, WA 98007']",47.60687985,-122.1348599
35,3-n_QF9PvXXHZkix6n-GhQ,assistedliving;memorycare,Aegis Gardens,FALSE,14259033530,13056 SE 76th St,,,Newcastle,98056,US,WA,"['13056 SE 76th St', 'Newcastle, WA 98056']",47.53536,-122.16568
36,1UJp1l0Y55KQAtWj1g7FTw,homehealthcare;assistedliving;personalcare,Visiting Angels,FALSE,14254418133,33410 SE Redmond-Fall City Rd,,,Fall City,98024,US,WA,"['33410 SE Redmond-Fall City Rd', 'Fall City, WA 98024']",47.5692749,-121.8932266
37,YlkJnmm7Fcp1QEbCYUOLbg,assistedliving,Sun Village Senior Care,FALSE,14255338289,10338 NE 141st Pl,,,Kirkland,98034,US,WA,"['10338 NE 141st Pl', 'Kirkland, WA 98034']",47.7280299,-122.2016
38,EKSPrcknIVRfVSJ1_KIpwA,retirement_homes;assistedliving;homehealthcare,Fairwinds Redmond,FALSE,14255584700,9988 Avondale Rd NE,,,Redmond,98052,US,WA,"['9988 Avondale Rd NE', 'Redmond, WA 98052']",47.68888,-122.09133
39,jRtjA3JKcetR9bnoKTnkZQ,retirement_homes;assistedliving,Peters Creek Retirement Community,FALSE,14258692273,14431 Redmond Way,,,Redmond,98052,US,WA,"['14431 Redmond Way', 'Redmond, WA 98052']",47.6743088,-122.1463928
40,sOxa9orKscnoKIvbPOPICg,assistedliving,Abundance Love,FALSE,12063512578,12819 NE 94th St,,,Kirkland,98033,US,WA,"['12819 NE 94th St', 'Kirkland, WA 98033']",47.68522843,-122.1685656
41,BM0mnisJWZOuirn3kCDlYw,retirement_homes;assistedliving,Overlake Terrace Retirement Community,FALSE,14258830495,2956 152nd Ave NE,,,Redmond,98052,US,WA,"['2956 152nd Ave NE', 'Redmond, WA 98052']",47.636507,-122.135776
42,QzzQVNULzHN3vkJE1KmSMQ,homehealthcare;personalcare;assistedliving,Care 4 All,FALSE,14252389960,,,,Snohomish,98296,US,WA,"['Snohomish, WA 98296']",47.86456299,-122.1438751
43,gTLDnYaK8cNk7IeSzGa7gg,homehealthcare;assistedliving;skillednursing,A1 Senior Care Advisors,FALSE,14253245592,16301 NE 8th St,Ste 121,,Bellevue,98008,US,WA,"['16301 NE 8th St', 'Ste 121', 'Bellevue, WA 98008']",47.616568,-122.123054
44,RXJ5GexqHgkLE7CV5CyxsA,retirement_homes;assistedliving,Bellewood - A LifeMinded Residence,FALSE,14253912880,3710 Providence Point Dr SE,,,Issaquah,98029,US,WA,"['3710 Providence Point Dr SE', 'Issaquah, WA 98029']",47.5743,-122.03699
45,MtR7AHC8ieJ3D4Cfwf1C6Q,assistedliving,Shumway Mansion,FALSE,14258030920,11410 99th Pl NE,,,Kirkland,98033,US,WA,"['11410 99th Pl NE', 'Kirkland, WA 98033']",47.70241,-122.20744
46,TzlA_eMtJI8FqKgh_oViPQ,retirement_homes;assistedliving,Merrill Gardens at Kirkland,FALSE,14252964588,14 Main St S,,,Kirkland,98033,US,WA,"['14 Main St S', 'Kirkland, WA 98033']",47.675672,-122.2048115
47,5KY4JdX-zIusO0EMGB8qiA,assistedliving;memorycare,Aegis Lodge,FALSE,14259470105,12629 116th Ave NE,,,Kirkland,98034,US,WA,"['12629 116th Ave NE', 'Kirkland, WA 98034']",47.71348953,-122.1878738
48,J0CFrI-XQEK1d31pAO-lpQ,assistedliving;memorycare,Aegis Living Bellevue,FALSE,14252983979,148 102nd Ave SE,,,Bellevue,98004,US,WA,"['148 102nd Ave SE', 'Bellevue, WA 98004']",47.60897,-122.20324
49,_6XJug_qxLIn3mV2rRGRHA,assistedliving;retirement_homes;skillednursing,Sunset Gardens Home,FALSE,14253362700,1835 NE 12th St,,,Renton,98056,US,WA,"['1835 NE 12th St', 'Renton, WA 98056']",47.50251,-122.1935
50,aYCOymKwb-TBcqK_wUBmGg,retirement_homes;assistedliving,The Lakeshore,FALSE,12067721200,11448 Rainier Ave S,,,Seattle,98178,US,WA,"['11448 Rainier Ave S', 'Seattle, WA 98178']",47.4999613,-122.2199671
51,nFD9B879DkoG8x7mkOf9_w,assistedliving;memorycare,Aegis Living Kirkland,FALSE,14259033092,13000 Totem Lake Blvd,,,Kirkland,98034,US,WA,"['13000 Totem Lake Blvd', 'Kirkland, WA 98034']",47.71714,-122.18557
52,PEGxxqALtEC4zzg0BEW-4A,retirement_homes;assistedliving,University House Issaquah,FALSE,14256541485,22975 SE Black Nugget Rd,,,Issaquah,98029,US,WA,"['22975 SE Black Nugget Rd', 'Issaquah, WA 98029']",47.5468345,-122.034781
53,aXnbG1oxTP-rKVPRxgB0Sw,eldercareplanning;assistedliving;retirement_homes,Bellevue Elderly Care,FALSE,12063490897,102 162nd Ave SE,,,Bellevue,98008,US,WA,"['102 162nd Ave SE', 'Bellevue, WA 98008']",47.608937,-122.12417
54,qflTzc50HdeCzEhRNHcrvQ,assistedliving,A GREAT LIFE Adult Family Home of Bellevue,FALSE,14253731849,417 158th Pl SE,,,Bellevue,98008,US,WA,"['417 158th Pl SE', 'Bellevue, WA 98008']",47.605567,-122.130058
55,I9XJ6s4NW5pzJl7CSLQHTA,assistedliving,Ideal Care Homes,FALSE,14255622998,4205 164th Ave SE,,,Bellevue,98006,US,WA,"['4205 164th Ave SE', 'Bellevue, WA 98006']",47.57072,-122.12181
56,1mlgkBOpGR4-Gp8Go6-Kkg,assistedliving;memorycare,Aegis Living Marymoor,FALSE,14259994074,4585 West Lake Sammamish Pkwy NE,,,Redmond,98052,US,WA,"['4585 West Lake Sammamish Pkwy NE', 'Redmond, WA 98052']",47.6500062,-122.1156164
57,khtme-YBbgHFA-OjM33clg,assistedliving;memorycare;retirement_homes,Sunrise of Redmond,FALSE,14254010300,15241 NE 20thSt,,,Bellevue,98007,US,WA,"['15241 NE 20thSt', 'Bellevue, WA 98007']",47.62692,-122.13573
58,vQUSZGxw6ovUA02ir1BSog,assistedliving;memorycare,Aegis Living Redmond,FALSE,14257862040,7480 West Lake Sammamish Pkwy,,,Redmond,98052,US,WA,"['7480 West Lake Sammamish Pkwy', 'Redmond, WA 98052']",47.67109,-122.13148
59,KfuN7rGIkNeHtR06k84B0Q,homehealthcare;assistedliving;personalcare,Visiting Angels,FALSE,14258284500,12020 113th Ave NE,"Bldg C, Ste 180",,Kirkland,98034,US,WA,"['12020 113th Ave NE', 'Bldg C, Ste 180', 'Kirkland, WA 98034']",47.708045,-122.189759
60,g37Y_WmgPcJI9bf_kPV2Og,assistedliving;retirement_homes;skillednursing,Covenant Living at the Shores,FALSE,12063168042,9150 Fortuna Dr,,,Mercer Island,98040,US,WA,"['9150 Fortuna Dr', 'Mercer Island, WA 98040']",47.58242566,-122.2163997
61,cMAtF1h3aHsxYfbxsiU5Mw,homehealthcare;assistedliving;rehabilitation_center,Magnolia Care,FALSE,14255990889,1113 E John St,,,Seattle,98102,US,WA,"['1113 E John St', 'Seattle, WA 98102']",47.61973,-122.31749
62,Q8zrtj6V1CONnexk6ycgZQ,retirement_homes;assistedliving,Regency Newcastle,FALSE,14254531508,7454 Newcastle Golf Club Rd,,,Newcastle,98059,US,WA,"['7454 Newcastle Golf Club Rd', 'Newcastle, WA 98059']",47.53498,-122.16272
63,s6EEm-ZthJU9zulhUIH_zw,assistedliving,Overlake Adult Family Home,FALSE,14257498714,,,,Kirkland,98034,US,WA,"['Kirkland, WA 98034']",47.71041107,-122.2109299
64,6rBETCuZBI7RGcJ_sG1gyQ,assistedliving,Brookdale Assisted Living,FALSE,14252268977,71 SW Victoria St,,,Renton,98057,US,WA,"['71 SW Victoria St', 'Renton, WA 98057']",47.4824625,-122.2188885
65,qrC1cMnKjoqc8Kd72dPGUA,assistedliving;homehealthcare;retirement_homes,Bonney Lake Comfort Care,FALSE,12062262778,7035 Locust Ave E,,,Bonney Lake,98391,US,WA,"['7035 Locust Ave E', 'Bonney Lake, WA 98391']",47.19239,-122.181
66,W_zb8I5DPoexD7TVPn5V3A,assistedliving;homehealthcare;hospice,Haven in Allyn,FALSE,13602770636,180 E Wheelwright St,,,Allyn,98524,US,WA,"['180 E Wheelwright St', 'Allyn, WA 98524']",47.38088226,-122.8366394
67,ph_GnjA3DoDZyCoYgytq7w,retirement_homes;assistedliving;memorycare,Washington Oakes,FALSE,14253393300,1717 Rockefeller Ave,,,Everett,98201,US,WA,"['1717 Rockefeller Ave', 'Everett, WA 98201']",47.99430994,-122.2048312
68,qr4FMDQlWi_P-Z4Ab8UrTg,retirement_homes;assistedliving;memorycare,Emerald City Senior Living,FALSE,12067291200,9001 Lake City Way NE,,,Seattle,98115,US,WA,"['9001 Lake City Way NE', 'Seattle, WA 98115']",47.69452,-122.30602
69,cfWxfcnv3Z00qwdRqwrQcA,assistedliving;memorycare,Pacifica Senior Living Lynnwood,FALSE,14157992991,18625 60th Ave W,,,Lynnwood,98037,US,WA,"['18625 60th Ave W', 'Lynnwood, WA 98037']",47.830058,-122.3141251
70,30JYhDsQwNN0wA7GKhdCPA,assistedliving,Sherwood Assisted Living,FALSE,13606833348,550 W Hendrickson Rd,,,Sequim,98382,US,WA,"['550 W Hendrickson Rd', 'Sequim, WA 98382']",48.08747,-123.1154
71,QzzQVNULzHN3vkJE1KmSMQ,homehealthcare;personalcare;assistedliving,Care 4 All,FALSE,14252389960,,,,Snohomish,98296,US,WA,"['Snohomish, WA 98296']",47.86456299,-122.1438751
72,ZcyaRKN6ZochTkiRWob_oQ,assistedliving,The Bridge at Mount Vernon,FALSE,13604160400,301 S Laventure Rd,,,Mount Vernon,98274,US,WA,"['301 S Laventure Rd', 'Mount Vernon, WA 98274']",48.41925,-122.31391
73,BV8S0zMdMirgOmXXlkcOFg,skillednursing;assistedliving,Life Care Center - Mount Vernon,FALSE,13604244258,2120 E Division St,,,Mount Vernon,98274,US,WA,"['2120 E Division St', 'Mount Vernon, WA 98274']",48.42028,-122.31392
74,z2eVPigjfhSL3TKsct-9_A,retirement_homes;assistedliving;skillednursing,Ida Culver House Broadview,FALSE,12063611989,12505 Greenwood Ave N,,,Seattle,98133,US,WA,"['12505 Greenwood Ave N', 'Seattle, WA 98133']",47.71980017,-122.3556456
75,M2Lyfr7MJO7bWgi23oWP1Q,assistedliving,Paradise Park Adult Family Home,FALSE,,1106 Marine Dr NE,,,Tulalip,98271,US,WA,"['1106 Marine Dr NE', 'Tulalip, WA 98271']",48.04599,-122.21385
76,GxdxVgeZN6wb1YrRJv7-Zw,retirement_homes;assistedliving;memorycare,Harbour Pointe Senior Living,FALSE,14254938555,10200 Harbour Pl,,,Mukilteo,98275,US,WA,"['10200 Harbour Pl', 'Mukilteo, WA 98275']",47.906345,-122.295637
77,A6CcJwb6IhbnM9CPSr3Pmg,assistedliving,Homeplace Special Care,FALSE,13607557000,210 N Skagit St,,,Burlington,98233,US,WA,"['210 N Skagit St', 'Burlington, WA 98233']",48.47655487,-122.3185272
78,GBunknRqXeVqTstcnAV1bA,assistedliving,Senior Care Consultants,FALSE,12062281678,,,,Mill Creek,98012,US,WA,"['Mill Creek, WA 98012']",47.8601,-122.21838
79,YlkJnmm7Fcp1QEbCYUOLbg,assistedliving,Sun Village Senior Care,FALSE,14255338289,10338 NE 141st Pl,,,Kirkland,98034,US,WA,"['10338 NE 141st Pl', 'Kirkland, WA 98034']",47.7280299,-122.2016
80,nhgZUOfVoyOhePmCI3bCkQ,assistedliving;memorycare,The Cottages at Marysville,FALSE,13603227561,1216 Grove St,,,Marysville,98270,US,WA,"['1216 Grove St', 'Marysville, WA 98270']",48.06099,-122.18107
81,ZbF-cVZa2G6e-r0aPjcvww,retirement_homes;assistedliving;memorycare,Cascade Valley Senior Living,FALSE,13604366829,8400 207th Pl NE,,,Arlington,98223,US,WA,"['8400 207th Pl NE', 'Arlington, WA 98223']",48.1835499,-122.11745
82,5wdjsqavI3G7OtBGRbjBsA,assistedliving;memorycare,Aegis Living Shoreline,FALSE,12062793448,14900 1st Ave NE,,,Shoreline,98155,US,WA,"['14900 1st Ave NE', 'Shoreline, WA 98155']",47.73782,-122.32821
83,SpcbcQMmmRkU8XtG_bTlhA,assistedliving,Family's Choice Care Adult Family Home,FALSE,14258770660,115 105th St SE,,,Everett,98208,US,WA,"['115 105th St SE', 'Everett, WA 98208']",47.90322,-122.23103
84,GHNOAuTN1FqM8nCRReOxug,assistedliving;memorycare,Pacifica Senior Living Snohomish,FALSE,13607995121,1124 Pine Ave,,,Snohomish,98290,US,WA,"['1124 Pine Ave', 'Snohomish, WA 98290']",47.92596,-122.08682
85,UySVDgy3rrx9J4jmWiUD6g,retirement_homes;assistedliving;memorycare,Vineyard Park at Bothell Landing,FALSE,14254858900,10519 E Riverside Dr,,,Bothell,98011,US,WA,"['10519 E Riverside Dr', 'Bothell, WA 98011']",47.75573,-122.19983
86,vCDOZkuhHlk3QZ5S2wV3BA,retirement_homes;assistedliving;memorycare,Fairwinds - Brighton Court,FALSE,14257754440,6520 196th St SW,,,Lynnwood,98036,US,WA,"['6520 196th St SW', 'Lynnwood, WA 98036']",47.8204,-122.32175
87,q_RfDXX1WLWrXS52A_6IKA,retirement_homes;assistedliving;memorycare,Woodland Terrace,FALSE,14254029606,17502 102nd Ave NE,,,Bothell,98011,US,WA,"['17502 102nd Ave NE', 'Bothell, WA 98011']",47.754213,-122.20164
88,98AafJF89I4JX-vdieBClw,retirement_homes;assistedliving,A Caring Haven Adult Family Home,FALSE,12069817693,7209 NE 152nd Pl,,,Kenmore,98028,US,WA,"['7209 NE 152nd Pl', 'Kenmore, WA 98028']",47.73856,-122.24346
89,ZwpTK3Up2t46PRd6fXF6MQ,retirement_homes;assistedliving;rehabilitation_center,CRISTA Senior Living,FALSE,12065467565,19312 Kings Garden Dr N,,,Shoreline,98133,US,WA,"['19312 Kings Garden Dr N', 'Shoreline, WA 98133']",47.7695694,-122.3527848
90,xpfFFRlEqCDQVQAd5ZfRoA,retirement_homes;assistedliving,North Creek by Bonaventure,FALSE,14252868185,1907 201st Pl SE,,,Bothell,98012,US,WA,"['1907 201st Pl SE', 'Bothell, WA 98012']",47.816388,-122.206757
91,RUPFviqhoSJ3xPL4FNe1Tg,homehealthcare;assistedliving;retirement_homes,Loving Care Adult Family Home,FALSE,16502246712,4123 189th Pl SW,,,Lynnwood,98036,US,WA,"['4123 189th Pl SW', 'Lynnwood, WA 98036']",47.8269,-122.28937
92,eFnYfJE3tnEoCYCKseyHdw,assistedliving,Regency on Whidbey Retirement & Assisted Living,FALSE,13602790933,1040 SW Kimball Dr,,,Oak Harbor,98277,US,WA,"['1040 SW Kimball Dr', 'Oak Harbor, WA 98277']",48.28821885,-122.6685333
93,yJ8WOzqBySXMgPJhceMWKg,assistedliving;memorycare,Aegis Living Lynnwood,FALSE,14253297289,18700 44th Ave W,,,Lynnwood,98037,US,WA,"['18700 44th Ave W', 'Lynnwood, WA 98037']",47.82893,-122.29286
94,qudfZxEig98BRn3YocORjw,retirement_homes;assistedliving,Maple Ridge by Bonaventure,FALSE,13602271852,1767 Alliance Ave,,,Freeland,98249,US,WA,"['1767 Alliance Ave', 'Freeland, WA 98249']",48.0108709,-122.5198327
95,BUBwM4ttXLxtYQ6NOLD_mw,assistedliving,Northgate Plaza,FALSE,12067078517,11030 5th Ave NE,,,Seattle,98125,US,WA,"['11030 5th Ave NE', 'Seattle, WA 98125']",47.7096405,-122.3225937
96,Awrg5R06LxBJfSewF3UZ9A,assistedliving,ABM Caring Home AFH,FALSE,14255828479,8730 236th St SW,,,Edmonds,98026,US,WA,"['8730 236th St SW', 'Edmonds, WA 98026']",47.78436,-122.35136
97,PFJHTxmHz9Sn0GF4_lgF2A,assistedliving,Discovery Memory Care,FALSE,13602070756,408 W Washington St,,,Sequim,98382,US,WA,"['408 W Washington St', 'Sequim, WA 98382']",48.07991,-123.11131
98,MtR7AHC8ieJ3D4Cfwf1C6Q,assistedliving,Shumway Mansion,FALSE,14258030920,11410 99th Pl NE,,,Kirkland,98033,US,WA,"['11410 99th Pl NE', 'Kirkland, WA 98033']",47.70241,-122.20744
99,D-uRgBq1zxcou7wPrPcLqA,retirement_homes;assistedliving,Foundation House at Northgate,FALSE,12063612758,11301 3rd Ave NE,,,Seattle,98125,US,WA,"['11301 3rd Ave NE', 'Seattle, WA 98125']",47.71061,-122.32652
100,b7rR9DHra09ToLgdif4kpg,assistedliving;hospice;personalcare,LaConner Retirement Inn & Assisted Living,FALSE,13604195458,204 N 1st St,,,LaConner,98257,US,WA,"['204 N 1st St', 'LaConner, WA 98257']",48.39327,-122.49537
101,sOxa9orKscnoKIvbPOPICg,assistedliving,Abundance Love,FALSE,12063512578,12819 NE 94th St,,,Kirkland,98033,US,WA,"['12819 NE 94th St', 'Kirkland, WA 98033']",47.68522843,-122.1685656
102,TKy8upJxUbAsEXMLw104DA,memorycare;assistedliving;retirement_homes,Laurel Cove Community,FALSE,12063649336,17201 15th Ave NE,,,Shoreline,98155,US,WA,"['17201 15th Ave NE', 'Shoreline, WA 98155']",47.75433,-122.31475
103,jRtjA3JKcetR9bnoKTnkZQ,retirement_homes;assistedliving,Peters Creek Retirement Community,FALSE,14258692273,14431 Redmond Way,,,Redmond,98052,US,WA,"['14431 Redmond Way', 'Redmond, WA 98052']",47.6743088,-122.1463928
104,jVL6aJVdl9isGyeGbstImg,assistedliving;hospice,Residence Choice Adult Family Home,FALSE,14256289317,17400 17th Pl NE,,,Shoreline,98155,US,WA,"['17400 17th Pl NE', 'Shoreline, WA 98155']",47.75469,-122.31008
105,xcxZeVuATtQy4Weu5ZaLJg,retirement_homes;assistedliving,Garden Court Retirement Community,FALSE,14254389080,520 112th St SW,,,Everett,98204,US,WA,"['520 112th St SW', 'Everett, WA 98204']",47.89567947,-122.2407303
106,TzlA_eMtJI8FqKgh_oViPQ,retirement_homes;assistedliving,Merrill Gardens at Kirkland,FALSE,14252964588,14 Main St S,,,Kirkland,98033,US,WA,"['14 Main St S', 'Kirkland, WA 98033']",47.675672,-122.2048115
107,EKSPrcknIVRfVSJ1_KIpwA,retirement_homes;assistedliving;homehealthcare,Fairwinds Redmond,FALSE,14255584700,9988 Avondale Rd NE,,,Redmond,98052,US,WA,"['9988 Avondale Rd NE', 'Redmond, WA 98052']",47.68888,-122.09133
108,RScqwgeWgWL2WziToe6qIw,retirement_homes;assistedliving,Merrill Gardens at the University,FALSE,12069269738,5300 24th Ave NE,,,Seattle,98105,US,WA,"['5300 24th Ave NE', 'Seattle, WA 98105']",47.66723089,-122.3018767
109,5KY4JdX-zIusO0EMGB8qiA,assistedliving;memorycare,Aegis Lodge,FALSE,14259470105,12629 116th Ave NE,,,Kirkland,98034,US,WA,"['12629 116th Ave NE', 'Kirkland, WA 98034']",47.71348953,-122.1878738
110,pSoA8wS8txmZWoyseq-PRw,assistedliving,All About Seniors,FALSE,12066975557,14028 19th Ave NE,,,Seattle,98125,US,WA,"['14028 19th Ave NE', 'Seattle, WA 98125']",47.7309868,-122.3080111
111,RGarBgn-rBBEyaKKbVN6fw,assistedliving;retirement_homes,La Pierre,FALSE,18669069234,23303 La Pierre Dr,,,Mountlake Terrace,98043,US,WA,"['23303 La Pierre Dr', 'Mountlake Terrace, WA 98043']",47.78739,-122.2987
112,4T1AC7hDnyOqyCKQQAFFWA,assistedliving;memorycare,Aegis Living Ravenna,FALSE,12067015677,8511 15th Ave NE,,,Seattle,98115,US,WA,"['8511 15th Ave NE', 'Seattle, WA 98115']",47.69069,-122.31291
113,hdZBXIaP7o_Bn4DRTPboAA,assistedliving;rehabilitation_center,Foss Home and Village,FALSE,12063641300,13023 Greenwood Ave N,,,Seattle,98133,US,WA,"['13023 Greenwood Ave N', 'Seattle, WA 98133']",47.72392,-122.35667
114,nFD9B879DkoG8x7mkOf9_w,assistedliving;memorycare,Aegis Living Kirkland,FALSE,14259033092,13000 Totem Lake Blvd,,,Kirkland,98034,US,WA,"['13000 Totem Lake Blvd', 'Kirkland, WA 98034']",47.71714,-122.18557
115,NbYGr6rIq7ttVQB5EndSpg,nonprofit;assistedliving,Norse Home,FALSE,12067817400,5311 Phinney Ave N,,,Seattle,98103,US,WA,"['5311 Phinney Ave N', 'Seattle, WA 98103']",47.667205,-122.3544868
116,5KeZnP6rN1xWlLfATE-_6g,memorycare;assistedliving,Chateau at Bothell Landing,FALSE,14254851155,17543 102nd Ave NE,,,Bothell,98011,US,WA,"['17543 102nd Ave NE', 'Bothell, WA 98011']",47.7560031,-122.2051971
117,oeJajySoLIi-e7vT0QQEyA,assistedliving,The Creekside,FALSE,14254099029,18200 Woodinville Snohomish Rd NE,,,Woodinville,98072,US,WA,"['18200 Woodinville Snohomish Rd NE', 'Woodinville, WA 98072']",47.76078,-122.15413
118,vo_22ij-x3JPZVVL40x3Bg,assistedliving;memorycare,The Cottages At Mill Creek,FALSE,14253798276,13200 10th Dr SE,,,Mill Creek,98012,US,WA,"['13200 10th Dr SE', 'Mill Creek, WA 98012']",47.877852,-122.217214
119,82vP7CBA6ZpHS-weJXAMqg,retirement_homes;assistedliving;memorycare,Fairwinds - Brittany Park,FALSE,14254027100,17143 133rd Ave NE,,,Woodinville,98072,US,WA,"['17143 133rd Ave NE', 'Woodinville, WA 98072']",47.751566,-122.1626946
120,s4FcuR0nRM1MR4ZCBedMaQ,assistedliving,Village At the Harbour,FALSE,13603787144,543 Spring St,,,Friday Harbor,98250,US,WA,"['543 Spring St', 'Friday Harbor, WA 98250']",48.531578,-123.020482
121,71fjtqJqbitYZOHdsgEAVQ,retirement_homes;assistedliving;physicaltherapy,Regency Everett Rehabilitation and Nursing Center,FALSE,14252584474,5129 Hilltop Rd,,,Everett,98203,US,WA,"['5129 Hilltop Rd', 'Everett, WA 98203']",47.94993,-122.22793
122,vIjHzUOpQG2QMAH715gwIA,personalcare;hospice;assistedliving,Taylormade Care,FALSE,14252102228,6328 W Beech St,,,Everett,98203,US,WA,"['6328 W Beech St', 'Everett, WA 98203']",47.94014,-122.23636
123,hTHXsno_aExMzq_Wyxct0w,assistedliving,Abelia 1 Senior Home,FALSE,14252492405,5314 Beverly Ln,,,Everett,98203,US,WA,"['5314 Beverly Ln', 'Everett, WA 98203']",47.94855,-122.23042
124,RgCbo6tnlQ4UBjVdcsrpZQ,retirement_homes;assistedliving,Cristinas Adult Family Home,FALSE,14256788047,4204 172nd St SW,,,Lynnwood,98037,US,WA,"['4204 172nd St SW', 'Lynnwood, WA 98037']",47.84264,-122.29026
125,BznC7RRghSYQDMFC9pcLVQ,childcare;nonprofit;assistedliving,The Cridge Centre For the Family,FALSE,12503848058,1307 Hillside Avenue,,,Victoria,V8T 0A2,CA,BC,"['1307 Hillside Avenue', 'Victoria, BC V8T 0A2', 'Canada']",48.4404517,-123.3505124
126,sXDnhs9IRe3G0YZIVqyGjg,retirement_homes;assistedliving;memorycare,Quail Park of Lynnwood,FALSE,14256408529,4015 164th St SW,,,Lynnwood,98087,US,WA,"['4015 164th St SW', 'Lynnwood, WA 98087']",47.853039,-122.2877134
127,qtbXEJvkes0_2gkHVdOrcg,assistedliving;eldercareplanning;retirement_homes,Sinclair Place,FALSE,13605583250,680 W Prairie St,,,Sequim,98382,US,WA,"['680 W Prairie St', 'Sequim, WA 98382']",48.07742,-123.11716
128,i_n18zP7kgdGKJdHUXBZFw,retirement_homes;assistedliving;personalcare,Ashley Pointe,FALSE,14253667084,11117 20th St NE,,,Lake Stevens,98258,US,WA,"['11117 20th St NE', 'Lake Stevens, WA 98258']",48.0154902,-122.0809086
129,8FyycYKNgGqgwVpZj6Lf6g,retirement_homes;assistedliving,Olympic Place by Bonaventure,FALSE,13603224105,20909 Olympic Pl,,,Arlington,98223,US,WA,"['20909 Olympic Pl', 'Arlington, WA 98223']",48.18583,-122.12532
130,Ky9JKgLgu8IXNShB-_sVoQ,assistedliving;retirement_homes,Village Concepts of Bothell - Riverside East,FALSE,14254811976,10315 E Riverside Dr,,,Bothell,98011,US,WA,"['10315 E Riverside Dr', 'Bothell, WA 98011']",47.7555809,-122.2019577
131,ZHymouQbpBqTF_r-eSmP9w,assistedliving,Heritage Court,FALSE,14252597200,4230 Colby Ave,,,Everett,98203,US,WA,"['4230 Colby Ave', 'Everett, WA 98203']",47.96095657,-122.208252
132,43BdierqkYmBld2hUX5u-Q,assistedliving,North Creek Retirement and Assisted Living Community,FALSE,14254838927,1907 201st Pl SE,,,Bothell,98012,US,WA,"['1907 201st Pl SE', 'Bothell, WA 98012']",47.81687546,-122.2066803
133,gTLDnYaK8cNk7IeSzGa7gg,homehealthcare;assistedliving;skillednursing,A1 Senior Care Advisors,FALSE,14253245592,16301 NE 8th St,Ste 121,,Bellevue,98008,US,WA,"['16301 NE 8th St', 'Ste 121', 'Bellevue, WA 98008']",47.616568,-122.123054
134,zF8CBZRdgxyNfW3samnuFg,assistedliving,Mountlake Terrace Plaza,FALSE,14253298817,23303 58th Ave W,,,Mountlake Terrace,98043,US,WA,"['23303 58th Ave W', 'Mountlake Terrace, WA 98043']",47.787067,-122.310488
135,HTHaFP1p0xbYMeKcuQInpA,assistedliving;retirement_homes,Clearbrook Inn,FALSE,13606921228,12295 Schold Rd NW,,,Silverdale,98383,US,WA,"['12295 Schold Rd NW', 'Silverdale, WA 98383']",47.67354333,-122.679775
136,32xh-t8MKcQsV-jHh_NYCQ,assistedliving,North Ridge House,FALSE,12065423666,745 N 180th St,,,Shoreline,98133,US,WA,"['745 N 180th St', 'Shoreline, WA 98133']",47.75943756,-122.3491669
137,5rGDwu0h2Y8MkCDpRdZdSg,assistedliving;retirement_homes,Merrill Gardens at Ballard,FALSE,12069659370,2418 NW 56th St,,,Seattle,98107,US,WA,"['2418 NW 56th St', 'Seattle, WA 98107']",47.669729,-122.3885289
138,KfuN7rGIkNeHtR06k84B0Q,homehealthcare;assistedliving;personalcare,Visiting Angels,FALSE,14258284500,12020 113th Ave NE,"Bldg C, Ste 180",,Kirkland,98034,US,WA,"['12020 113th Ave NE', 'Bldg C, Ste 180', 'Kirkland, WA 98034']",47.708045,-122.189759
139,cMAtF1h3aHsxYfbxsiU5Mw,homehealthcare;assistedliving;rehabilitation_center,Magnolia Care,FALSE,14255990889,1113 E John St,,,Seattle,98102,US,WA,"['1113 E John St', 'Seattle, WA 98102']",47.61973,-122.31749
140,5P2ON0zKjtDVMuBBD_MVIA,retirement_homes;assistedliving,GenCare Granite Falls at The Village,FALSE,13606911777,302 N Alder Ave,,,Granite Falls,98252,US,WA,"['302 N Alder Ave', 'Granite Falls, WA 98252']",48.085162,-121.964739
141,1VEA0wsLQ-2wRanELGoVGA,retirement_homes;assistedliving;memorycare,Sunrise of Edmonds,FALSE,14256739700,750 Edmonds Way,,,Edmonds,98020,US,WA,"['750 Edmonds Way', 'Edmonds, WA 98020']",47.79258728,-122.3711777
142,vQUSZGxw6ovUA02ir1BSog,assistedliving;memorycare,Aegis Living Redmond,FALSE,14257862040,7480 West Lake Sammamish Pkwy,,,Redmond,98052,US,WA,"['7480 West Lake Sammamish Pkwy', 'Redmond, WA 98052']",47.67109,-122.13148
143,K7TxnmP4xeEWynvk-JKXdw,retirement_homes;assistedliving;skillednursing,Aljoya Thornton Place,FALSE,12064523186,450 NE 100th St,,,Seattle,98125,US,WA,"['450 NE 100th St', 'Seattle, WA 98125']",47.7013479,-122.3236769
144,NE4KSLrkohJ3mx1XDE7tfg,hospice;homehealthcare;assistedliving,Evergreen Adult Family Homes,FALSE,12063661771,11339 8th Ave NE,,,Seattle,98125,US,WA,"['11339 8th Ave NE', 'Seattle, WA 98125']",47.71153,-122.32106
145,s6EEm-ZthJU9zulhUIH_zw,assistedliving,Overlake Adult Family Home,FALSE,14257498714,,,,Kirkland,98034,US,WA,"['Kirkland, WA 98034']",47.71041107,-122.2109299
146,W_zb8I5DPoexD7TVPn5V3A,assistedliving;homehealthcare;hospice,Haven in Allyn,FALSE,13602770636,180 E Wheelwright St,,,Allyn,98524,US,WA,"['180 E Wheelwright St', 'Allyn, WA 98524']",47.38088226,-122.8366394
147,qrC1cMnKjoqc8Kd72dPGUA,assistedliving;homehealthcare;retirement_homes,Bonney Lake Comfort Care,FALSE,12062262778,7035 Locust Ave E,,,Bonney Lake,98391,US,WA,"['7035 Locust Ave E', 'Bonney Lake, WA 98391']",47.19239,-122.181
148,PEXugHzYK_p5C2ja5lsfBQ,assistedliving;memorycare,Fieldstone Cooper Point,FALSE,13609155764,810 Fieldstone Dr SW,,,Olympia,98502,US,WA,"['810 Fieldstone Dr SW', 'Olympia, WA 98502']",47.04276,-122.92665
149,PU04TXVEK9y2GTP8S7TO6A,assistedliving,Cooks Hill Manor Assisted Living,FALSE,13603883147,2010 Cooks Hill Rd,,,Centralia,98531,US,WA,"['2010 Cooks Hill Rd', 'Centralia, WA 98531']",46.7132099,-122.98773
150,W_zb8I5DPoexD7TVPn5V3A,assistedliving;homehealthcare;hospice,Haven in Allyn,FALSE,13602770636,180 E Wheelwright St,,,Allyn,98524,US,WA,"['180 E Wheelwright St', 'Allyn, WA 98524']",47.38088226,-122.8366394
151,KWhO62gZ2OCgZJ0AmcStsw,assistedliving,Tall Cotton AFH,FALSE,13609280271,222 Bytha Way,,,Port Angeles,98363,US,WA,"['222 Bytha Way', 'Port Angeles, WA 98363']",48.13135,-123.72203
152,30JYhDsQwNN0wA7GKhdCPA,assistedliving,Sherwood Assisted Living,FALSE,13606833348,550 W Hendrickson Rd,,,Sequim,98382,US,WA,"['550 W Hendrickson Rd', 'Sequim, WA 98382']",48.08747,-123.1154
153,PFJHTxmHz9Sn0GF4_lgF2A,assistedliving,Discovery Memory Care,FALSE,13602070756,408 W Washington St,,,Sequim,98382,US,WA,"['408 W Washington St', 'Sequim, WA 98382']",48.07991,-123.11131
154,qtbXEJvkes0_2gkHVdOrcg,assistedliving;eldercareplanning;retirement_homes,Sinclair Place,FALSE,13605583250,680 W Prairie St,,,Sequim,98382,US,WA,"['680 W Prairie St', 'Sequim, WA 98382']",48.07742,-123.11716
155,W_zb8I5DPoexD7TVPn5V3A,assistedliving;homehealthcare;hospice,Haven in Allyn,FALSE,13602770636,180 E Wheelwright St,,,Allyn,98524,US,WA,"['180 E Wheelwright St', 'Allyn, WA 98524']",47.38088226,-122.8366394
156,30JYhDsQwNN0wA7GKhdCPA,assistedliving,Sherwood Assisted Living,FALSE,13606833348,550 W Hendrickson Rd,,,Sequim,98382,US,WA,"['550 W Hendrickson Rd', 'Sequim, WA 98382']",48.08747,-123.1154
157,PFJHTxmHz9Sn0GF4_lgF2A,assistedliving,Discovery Memory Care,FALSE,13602070756,408 W Washington St,,,Sequim,98382,US,WA,"['408 W Washington St', 'Sequim, WA 98382']",48.07991,-123.11131
158,qr4FMDQlWi_P-Z4Ab8UrTg,retirement_homes;assistedliving;memorycare,Emerald City Senior Living,FALSE,12067291200,9001 Lake City Way NE,,,Seattle,98115,US,WA,"['9001 Lake City Way NE', 'Seattle, WA 98115']",47.69452,-122.30602
159,qtbXEJvkes0_2gkHVdOrcg,assistedliving;eldercareplanning;retirement_homes,Sinclair Place,FALSE,13605583250,680 W Prairie St,,,Sequim,98382,US,WA,"['680 W Prairie St', 'Sequim, WA 98382']",48.07742,-123.11716
160,cfWxfcnv3Z00qwdRqwrQcA,assistedliving;memorycare,Pacifica Senior Living Lynnwood,FALSE,14157992991,18625 60th Ave W,,,Lynnwood,98037,US,WA,"['18625 60th Ave W', 'Lynnwood, WA 98037']",47.830058,-122.3141251
161,KWhO62gZ2OCgZJ0AmcStsw,assistedliving,Tall Cotton AFH,FALSE,13609280271,222 Bytha Way,,,Port Angeles,98363,US,WA,"['222 Bytha Way', 'Port Angeles, WA 98363']",48.13135,-123.72203
162,z2eVPigjfhSL3TKsct-9_A,retirement_homes;assistedliving;skillednursing,Ida Culver House Broadview,FALSE,12063611989,12505 Greenwood Ave N,,,Seattle,98133,US,WA,"['12505 Greenwood Ave N', 'Seattle, WA 98133']",47.71980017,-122.3556456
163,5G_wtTNiJyufg6jZV5J6Zw,assistedliving;memorycare,Aegis Living Queen Anne Rodgers Park,FALSE,12068589989,2900 3rd Ave W,,,Seattle,98119,US,WA,"['2900 3rd Ave W', 'Seattle, WA 98119']",47.64618,-122.36028
164,xo8TIcgvCa3ifae1fpqVdw,eldercareplanning;assistedliving;homehealthcare,Eldercare Navigators,FALSE,12064564410,,,,Seattle,98119,US,WA,"['Seattle, WA 98119']",47.61161707,-122.3349639
165,xgan_vFcDDjcs-LXWqT_vQ,retirement_homes;assistedliving;nonprofit,Fred Lind Manor,FALSE,12063241632,1802 17th Ave,,,Seattle,98122,US,WA,"['1802 17th Ave', 'Seattle, WA 98122']",47.61806,-122.30976
166,QzzQVNULzHN3vkJE1KmSMQ,homehealthcare;personalcare;assistedliving,Care 4 All,FALSE,14252389960,,,,Snohomish,98296,US,WA,"['Snohomish, WA 98296']",47.86456299,-122.1438751
167,5wdjsqavI3G7OtBGRbjBsA,assistedliving;memorycare,Aegis Living Shoreline,FALSE,12062793448,14900 1st Ave NE,,,Shoreline,98155,US,WA,"['14900 1st Ave NE', 'Shoreline, WA 98155']",47.73782,-122.32821
168,AuTg-zwxCjP2myK3oGAklQ,assistedliving;memorycare,Aegis Living Madison,FALSE,12062036348,2200 E Madison St,,,Seattle,98112,US,WA,"['2200 E Madison St', 'Seattle, WA 98112']",47.618461,-122.3036572
169,GxdxVgeZN6wb1YrRJv7-Zw,retirement_homes;assistedliving;memorycare,Harbour Pointe Senior Living,FALSE,14254938555,10200 Harbour Pl,,,Mukilteo,98275,US,WA,"['10200 Harbour Pl', 'Mukilteo, WA 98275']",47.906345,-122.295637
170,6fIlDihLc2wEdyi4W5vR9A,retirement_homes;assistedliving;memorycare,Queen Anne Manor,FALSE,12062825001,100 Crockett St,,,Seattle,98109,US,WA,"['100 Crockett St', 'Seattle, WA 98109']",47.637653,-122.354987
171,DlCj6KcvDpDJRKbbFyLwXA,assistedliving;retirement_homes,Crista Shores,FALSE,13606980900,1600 NW Crista Shores Ln,,,Silverdale,98383,US,WA,"['1600 NW Crista Shores Ln', 'Silverdale, WA 98383']",47.64943,-122.68418
172,HjAzpz646wYPPCxF-FALDA,assistedliving;memorycare,The Summit At First Hill,FALSE,12066524444,1200 University St,Ste 100,,Seattle,98101,US,WA,"['1200 University St', 'Ste 100', 'Seattle, WA 98101']",47.612557,-122.3254104
173,vCDOZkuhHlk3QZ5S2wV3BA,retirement_homes;assistedliving;memorycare,Fairwinds - Brighton Court,FALSE,14257754440,6520 196th St SW,,,Lynnwood,98036,US,WA,"['6520 196th St SW', 'Lynnwood, WA 98036']",47.8204,-122.32175
174,ZwpTK3Up2t46PRd6fXF6MQ,retirement_homes;assistedliving;rehabilitation_center,CRISTA Senior Living,FALSE,12065467565,19312 Kings Garden Dr N,,,Shoreline,98133,US,WA,"['19312 Kings Garden Dr N', 'Shoreline, WA 98133']",47.7695694,-122.3527848
175,BUBwM4ttXLxtYQ6NOLD_mw,assistedliving,Northgate Plaza,FALSE,12067078517,11030 5th Ave NE,,,Seattle,98125,US,WA,"['11030 5th Ave NE', 'Seattle, WA 98125']",47.7096405,-122.3225937
176,D-uRgBq1zxcou7wPrPcLqA,retirement_homes;assistedliving,Foundation House at Northgate,FALSE,12063612758,11301 3rd Ave NE,,,Seattle,98125,US,WA,"['11301 3rd Ave NE', 'Seattle, WA 98125']",47.71061,-122.32652
177,ftERgJs3_sr1RsEkG3HIfw,hospice;assistedliving;occupationaltherapy,Skyline Health Services,FALSE,12066823200,715 9th Ave,,,Seattle,98104,US,WA,"['715 9th Ave', 'Seattle, WA 98104']",47.606371,-122.3255169
178,Awrg5R06LxBJfSewF3UZ9A,assistedliving,ABM Caring Home AFH,FALSE,14255828479,8730 236th St SW,,,Edmonds,98026,US,WA,"['8730 236th St SW', 'Edmonds, WA 98026']",47.78436,-122.35136
179,Mn-u2qEmKI4VjCI8S2f7lQ,retirement_homes;assistedliving,Horizon House,FALSE,12063823100,900 University St,,,Seattle,98101,US,WA,"['900 University St', 'Seattle, WA 98101']",47.611068,-122.329025
180,RUPFviqhoSJ3xPL4FNe1Tg,homehealthcare;assistedliving;retirement_homes,Loving Care Adult Family Home,FALSE,16502246712,4123 189th Pl SW,,,Lynnwood,98036,US,WA,"['4123 189th Pl SW', 'Lynnwood, WA 98036']",47.8269,-122.28937
181,C-nCEhTKyS-LNWGVvtsoog,retirement_homes;assistedliving,Merrill Gardens at First Hill,FALSE,12063174955,1421 Minor Ave,,,Seattle,98101,US,WA,"['1421 Minor Ave', 'Seattle, WA 98101']",47.61317,-122.327552
182,yJ8WOzqBySXMgPJhceMWKg,assistedliving;memorycare,Aegis Living Lynnwood,FALSE,14253297289,18700 44th Ave W,,,Lynnwood,98037,US,WA,"['18700 44th Ave W', 'Lynnwood, WA 98037']",47.82893,-122.29286
183,TKy8upJxUbAsEXMLw104DA,memorycare;assistedliving;retirement_homes,Laurel Cove Community,FALSE,12063649336,17201 15th Ave NE,,,Shoreline,98155,US,WA,"['17201 15th Ave NE', 'Shoreline, WA 98155']",47.75433,-122.31475
184,RScqwgeWgWL2WziToe6qIw,retirement_homes;assistedliving,Merrill Gardens at the University,FALSE,12069269738,5300 24th Ave NE,,,Seattle,98105,US,WA,"['5300 24th Ave NE', 'Seattle, WA 98105']",47.66723089,-122.3018767
185,BznC7RRghSYQDMFC9pcLVQ,childcare;nonprofit;assistedliving,The Cridge Centre For the Family,FALSE,12503848058,1307 Hillside Avenue,,,Victoria,V8T 0A2,CA,BC,"['1307 Hillside Avenue', 'Victoria, BC V8T 0A2', 'Canada']",48.4404517,-123.3505124
186,ZcyaRKN6ZochTkiRWob_oQ,assistedliving,The Bridge at Mount Vernon,FALSE,13604160400,301 S Laventure Rd,,,Mount Vernon,98274,US,WA,"['301 S Laventure Rd', 'Mount Vernon, WA 98274']",48.41925,-122.31391
187,jVL6aJVdl9isGyeGbstImg,assistedliving;hospice,Residence Choice Adult Family Home,FALSE,14256289317,17400 17th Pl NE,,,Shoreline,98155,US,WA,"['17400 17th Pl NE', 'Shoreline, WA 98155']",47.75469,-122.31008
188,BV8S0zMdMirgOmXXlkcOFg,skillednursing;assistedliving,Life Care Center - Mount Vernon,FALSE,13604244258,2120 E Division St,,,Mount Vernon,98274,US,WA,"['2120 E Division St', 'Mount Vernon, WA 98274']",48.42028,-122.31392
189,pSoA8wS8txmZWoyseq-PRw,assistedliving,All About Seniors,FALSE,12066975557,14028 19th Ave NE,,,Seattle,98125,US,WA,"['14028 19th Ave NE', 'Seattle, WA 98125']",47.7309868,-122.3080111
190,4T1AC7hDnyOqyCKQQAFFWA,assistedliving;memorycare,Aegis Living Ravenna,FALSE,12067015677,8511 15th Ave NE,,,Seattle,98115,US,WA,"['8511 15th Ave NE', 'Seattle, WA 98115']",47.69069,-122.31291
191,NbYGr6rIq7ttVQB5EndSpg,nonprofit;assistedliving,Norse Home,FALSE,12067817400,5311 Phinney Ave N,,,Seattle,98103,US,WA,"['5311 Phinney Ave N', 'Seattle, WA 98103']",47.667205,-122.3544868
192,A6CcJwb6IhbnM9CPSr3Pmg,assistedliving,Homeplace Special Care,FALSE,13607557000,210 N Skagit St,,,Burlington,98233,US,WA,"['210 N Skagit St', 'Burlington, WA 98233']",48.47655487,-122.3185272
193,CJ51kdKzd6C2VZs1i0pCvw,assistedliving;memorycare,Aegis Living West Seattle,FALSE,12064875289,4700 SW Admiral Way,,,Seattle,98116,US,WA,"['4700 SW Admiral Way', 'Seattle, WA 98116']",47.58099,-122.39304
194,YFyoGTOr5eM5xlDBTcWp-A,memorycare;assistedliving;skillednursing,A Place for Mom,FALSE,14076053585,701 5th Ave,Ste 3200,,Seattle,98104,US,WA,"['701 5th Ave', 'Ste 3200', 'Seattle, WA 98104']",47.604647,-122.330753
195,hdZBXIaP7o_Bn4DRTPboAA,assistedliving;rehabilitation_center,Foss Home and Village,FALSE,12063641300,13023 Greenwood Ave N,,,Seattle,98133,US,WA,"['13023 Greenwood Ave N', 'Seattle, WA 98133']",47.72392,-122.35667
196,BE2DUZKTQQ5sL8tG0KcLtw,rehabilitation_center;assistedliving;skillednursing,Parkshore,FALSE,12063290770,1630 43rd Ave E,,,Seattle,98112,US,WA,"['1630 43rd Ave E', 'Seattle, WA 98112']",47.63429,-122.27633
197,RGarBgn-rBBEyaKKbVN6fw,assistedliving;retirement_homes,La Pierre,FALSE,18669069234,23303 La Pierre Dr,,,Mountlake Terrace,98043,US,WA,"['23303 La Pierre Dr', 'Mountlake Terrace, WA 98043']",47.78739,-122.2987
198,qudfZxEig98BRn3YocORjw,retirement_homes;assistedliving,Maple Ridge by Bonaventure,FALSE,13602271852,1767 Alliance Ave,,,Freeland,98249,US,WA,"['1767 Alliance Ave', 'Freeland, WA 98249']",48.0108709,-122.5198327
199,eFnYfJE3tnEoCYCKseyHdw,assistedliving,Regency on Whidbey Retirement & Assisted Living,FALSE,13602790933,1040 SW Kimball Dr,,,Oak Harbor,98277,US,WA,"['1040 SW Kimball Dr', 'Oak Harbor, WA 98277']",48.28821885,-122.6685333
200,s4FcuR0nRM1MR4ZCBedMaQ,assistedliving,Village At the Harbour,FALSE,13603787144,543 Spring St,,,Friday Harbor,98250,US,WA,"['543 Spring St', 'Friday Harbor, WA 98250']",48.531578,-123.020482
201,HTHaFP1p0xbYMeKcuQInpA,assistedliving;retirement_homes,Clearbrook Inn,FALSE,13606921228,12295 Schold Rd NW,,,Silverdale,98383,US,WA,"['12295 Schold Rd NW', 'Silverdale, WA 98383']",47.67354333,-122.679775
202,YagSEab4jNo5zUFYbducQw,assistedliving;retirement_homes,Kin On Health Care Center,FALSE,18887213634,4416 S Brandon St,,,Seattle,98118,US,WA,"['4416 S Brandon St', 'Seattle, WA 98118']",47.55388,-122.27877
203,RgCbo6tnlQ4UBjVdcsrpZQ,retirement_homes;assistedliving,Cristinas Adult Family Home,FALSE,14256788047,4204 172nd St SW,,,Lynnwood,98037,US,WA,"['4204 172nd St SW', 'Lynnwood, WA 98037']",47.84264,-122.29026
204,sXDnhs9IRe3G0YZIVqyGjg,retirement_homes;assistedliving;memorycare,Quail Park of Lynnwood,FALSE,14256408529,4015 164th St SW,,,Lynnwood,98087,US,WA,"['4015 164th St SW', 'Lynnwood, WA 98087']",47.853039,-122.2877134
205,b7rR9DHra09ToLgdif4kpg,assistedliving;hospice;personalcare,LaConner Retirement Inn & Assisted Living,FALSE,13604195458,204 N 1st St,,,LaConner,98257,US,WA,"['204 N 1st St', 'LaConner, WA 98257']",48.39327,-122.49537
206,zF8CBZRdgxyNfW3samnuFg,assistedliving,Mountlake Terrace Plaza,FALSE,14253298817,23303 58th Ave W,,,Mountlake Terrace,98043,US,WA,"['23303 58th Ave W', 'Mountlake Terrace, WA 98043']",47.787067,-122.310488
207,gTLDnYaK8cNk7IeSzGa7gg,homehealthcare;assistedliving;skillednursing,A1 Senior Care Advisors,FALSE,14253245592,16301 NE 8th St,Ste 121,,Bellevue,98008,US,WA,"['16301 NE 8th St', 'Ste 121', 'Bellevue, WA 98008']",47.616568,-122.123054
208,5rGDwu0h2Y8MkCDpRdZdSg,assistedliving;retirement_homes,Merrill Gardens at Ballard,FALSE,12069659370,2418 NW 56th St,,,Seattle,98107,US,WA,"['2418 NW 56th St', 'Seattle, WA 98107']",47.669729,-122.3885289
209,cMAtF1h3aHsxYfbxsiU5Mw,homehealthcare;assistedliving;rehabilitation_center,Magnolia Care,FALSE,14255990889,1113 E John St,,,Seattle,98102,US,WA,"['1113 E John St', 'Seattle, WA 98102']",47.61973,-122.31749
210,32xh-t8MKcQsV-jHh_NYCQ,assistedliving,North Ridge House,FALSE,12065423666,745 N 180th St,,,Shoreline,98133,US,WA,"['745 N 180th St', 'Shoreline, WA 98133']",47.75943756,-122.3491669
211,W_zb8I5DPoexD7TVPn5V3A,assistedliving;homehealthcare;hospice,Haven in Allyn,FALSE,13602770636,180 E Wheelwright St,,,Allyn,98524,US,WA,"['180 E Wheelwright St', 'Allyn, WA 98524']",47.38088226,-122.8366394
212,1VEA0wsLQ-2wRanELGoVGA,retirement_homes;assistedliving;memorycare,Sunrise of Edmonds,FALSE,14256739700,750 Edmonds Way,,,Edmonds,98020,US,WA,"['750 Edmonds Way', 'Edmonds, WA 98020']",47.79258728,-122.3711777
213,ihSeRsPqQr17NE-AzUX05w,assistedliving,Park Place,FALSE,12067227275,6900 37th Ave S,Apt 159,,Seattle,98118,US,WA,"['6900 37th Ave S', 'Apt 159', 'Seattle, WA 98118']",47.54006577,-122.285408
214,K7TxnmP4xeEWynvk-JKXdw,retirement_homes;assistedliving;skillednursing,Aljoya Thornton Place,FALSE,12064523186,450 NE 100th St,,,Seattle,98125,US,WA,"['450 NE 100th St', 'Seattle, WA 98125']",47.7013479,-122.3236769
215,AnZfDV3D7q4v-qum82vZ5w,retirement_homes;assistedliving;memorycare,A Place for Mom,FALSE,15092288768,701 5th Ave,,,Seattle,98104,US,WA,"['701 5th Ave', 'Seattle, WA 98104']",47.60447269,-122.3304658
216,NE4KSLrkohJ3mx1XDE7tfg,hospice;homehealthcare;assistedliving,Evergreen Adult Family Homes,FALSE,12063661771,11339 8th Ave NE,,,Seattle,98125,US,WA,"['11339 8th Ave NE', 'Seattle, WA 98125']",47.71153,-122.32106
217,qrC1cMnKjoqc8Kd72dPGUA,assistedliving;homehealthcare;retirement_homes,Bonney Lake Comfort Care,FALSE,12062262778,7035 Locust Ave E,,,Bonney Lake,98391,US,WA,"['7035 Locust Ave E', 'Bonney Lake, WA 98391']",47.19239,-122.181
218,QzzQVNULzHN3vkJE1KmSMQ,homehealthcare;personalcare;assistedliving,Care 4 All,FALSE,14252389960,,,,Snohomish,98296,US,WA,"['Snohomish, WA 98296']",47.86456299,-122.1438751
219,RGarBgn-rBBEyaKKbVN6fw,assistedliving;retirement_homes,La Pierre,FALSE,18669069234,23303 La Pierre Dr,,,Mountlake Terrace,98043,US,WA,"['23303 La Pierre Dr', 'Mountlake Terrace, WA 98043']",47.78739,-122.2987
220,RUPFviqhoSJ3xPL4FNe1Tg,homehealthcare;assistedliving;retirement_homes,Loving Care Adult Family Home,FALSE,16502246712,4123 189th Pl SW,,,Lynnwood,98036,US,WA,"['4123 189th Pl SW', 'Lynnwood, WA 98036']",47.8269,-122.28937
221,gTLDnYaK8cNk7IeSzGa7gg,homehealthcare;assistedliving;skillednursing,A1 Senior Care Advisors,FALSE,14253245592,16301 NE 8th St,Ste 121,,Bellevue,98008,US,WA,"['16301 NE 8th St', 'Ste 121', 'Bellevue, WA 98008']",47.616568,-122.123054
222,zF8CBZRdgxyNfW3samnuFg,assistedliving,Mountlake Terrace Plaza,FALSE,14253298817,23303 58th Ave W,,,Mountlake Terrace,98043,US,WA,"['23303 58th Ave W', 'Mountlake Terrace, WA 98043']",47.787067,-122.310488
223,cMAtF1h3aHsxYfbxsiU5Mw,homehealthcare;assistedliving;rehabilitation_center,Magnolia Care,FALSE,14255990889,1113 E John St,,,Seattle,98102,US,WA,"['1113 E John St', 'Seattle, WA 98102']",47.61973,-122.31749
224,W_zb8I5DPoexD7TVPn5V3A,assistedliving;homehealthcare;hospice,Haven in Allyn,FALSE,13602770636,180 E Wheelwright St,,,Allyn,98524,US,WA,"['180 E Wheelwright St', 'Allyn, WA 98524']",47.38088226,-122.8366394
225,MjONSy8KlAA-5tfpCHagkQ,retirement_homes;assistedliving,Farrington Court Retirement Community,FALSE,12538522737,516 Kenosia Ave S,,,Kent,98030,US,WA,"['516 Kenosia Ave S', 'Kent, WA 98030']",47.38079071,-122.2267609
226,8hYiU2iNBUmcOG-fRWxSdg,retirement_homes;assistedliving;memorycare,Meridian at Stone Creek,FALSE,12532143078,1111 S 376th St,,,Milton,98354,US,WA,"['1111 S 376th St', 'Milton, WA 98354']",47.26449,-122.32031
227,hdrvsP8hupn-ELive6YYAw,assistedliving;retirement_homes;memorycare,Village Concepts of Auburn - Brannan Park,FALSE,12537362800,2901 I St NE,,,Auburn,98002,US,WA,"['2901 I St NE', 'Auburn, WA 98002']",47.33291,-122.21993
228,rrpMcgEO_Oan8m4DqcpJcg,homehealthcare;personalcare;assistedliving,Comfort Keepers,FALSE,12532000038,500 S 336th St,Ste 204,,Federal Way,98003,US,WA,"['500 S 336th St', 'Ste 204', 'Federal Way, WA 98003']",47.30075,-122.32763
229,2Zx63tEN1t9BZ38mQHyw8A,retirement_homes;assistedliving,Village Concepts of Milton - Mill Ridge Village,FALSE,12539259200,607 28th Ave,,,Milton,98354,US,WA,"['607 28th Ave', 'Milton, WA 98354']",47.252315,-122.2974151
230,DW_yIIGNMDCPqvhcWduJew,retirement_homes;assistedliving;skillednursing,Judson Park,FALSE,12068244000,23600 Marine View Dr S,,,Des Moines,98198,US,WA,"['23600 Marine View Dr S', 'Des Moines, WA 98198']",47.38995,-122.3221
231,ULmGXh7pVe1cjkEIRkkYaw,assistedliving;memorycare,Aegis Living Kent,FALSE,12532430054,10421 SE 248th St,,,Kent,98030,US,WA,"['10421 SE 248th St', 'Kent, WA 98030']",47.37922,-122.20126
232,qrC1cMnKjoqc8Kd72dPGUA,assistedliving;homehealthcare;retirement_homes,Bonney Lake Comfort Care,FALSE,12062262778,7035 Locust Ave E,,,Bonney Lake,98391,US,WA,"['7035 Locust Ave E', 'Bonney Lake, WA 98391']",47.19239,-122.181
233,eLk5m8IDW2Li9qnFbEd9hA,assistedliving;retirement_homes,Merrill Gardens at Auburn,FALSE,12533364858,18 1st St SE,,,Auburn,98002,US,WA,"['18 1st St SE', 'Auburn, WA 98002']",47.3063851,-122.2294621
234,gTLDnYaK8cNk7IeSzGa7gg,homehealthcare;assistedliving;skillednursing,A1 Senior Care Advisors,FALSE,14253245592,16301 NE 8th St,Ste 121,,Bellevue,98008,US,WA,"['16301 NE 8th St', 'Ste 121', 'Bellevue, WA 98008']",47.616568,-122.123054
235,4b9DWjn6NB2rSj7BuRA82A,assistedliving;memorycare,GenCare Lifestyle Steel Lake,FALSE,12539415859,31200 23rd Ave S,,,Federal Way,98003,US,WA,"['31200 23rd Ave S', 'Federal Way, WA 98003']",47.32166,-122.30336
236,Y9apOKlqYTy9iuJNyPqNew,retirement_homes;assistedliving,Cedar Ridge by Bonaventure,FALSE,12532994044,9515 198th Ave E,,,Bonney Lake,98391,US,WA,"['9515 198th Ave E', 'Bonney Lake, WA 98391']",47.17047,-122.16164
237,W_zb8I5DPoexD7TVPn5V3A,assistedliving;homehealthcare;hospice,Haven in Allyn,FALSE,13602770636,180 E Wheelwright St,,,Allyn,98524,US,WA,"['180 E Wheelwright St', 'Allyn, WA 98524']",47.38088226,-122.8366394
238,_Z7JfGICSUMH5R_d9RrL3Q,assistedliving;retirement_homes,Royal Plaza Retirement Center,FALSE,12087462855,2870 Juniper Dr,,,Lewiston,83501,US,ID,"['2870 Juniper Dr', 'Lewiston, ID 83501']",46.39594,-116.99233
239,#NAME?,assistedliving;eldercareplanning,Care Solutions,FALSE,15035487312,11124 NE Halsey St,Ste 521,,Portland,97220,US,OR,"['11124 NE Halsey St', 'Ste 521', 'Portland, OR 97220']",45.53294,-122.54819
240,28SbJze_jyShFsj9CKmlEA,assistedliving;memorycare,Touchmark at Fairway Village,FALSE,13603561449,2911 SE Village Lp,,,Vancouver,98683,US,WA,"['2911 SE Village Lp', 'Vancouver, WA 98683']",45.60086,-122.507848
241,StWdPCN4LQYhy0wP6utMCA,assistedliving,Cascade Inn,FALSE,13605453984,11613 SE 7th St,,,Vancouver,98683,US,WA,"['11613 SE 7th St', 'Vancouver, WA 98683']",45.61554,-122.55289
242,G_Vfmor9ZksAjvw3T-59Cw,retirement_homes;assistedliving;memorycare,Pacifica Senior Living Portland,FALSE,15037664997,1808 SE 182nd Ave,,,Portland,97233,US,OR,"['1808 SE 182nd Ave', 'Portland, OR 97233']",45.5096,-122.47437
243,ItQB_Zz9MVk7YrBXqJZ-vw,assistedliving;eldercareplanning;hospice,Family Values Adult Placement Agency,FALSE,13609847700,,,,Vancouver,98662,US,WA,"['Vancouver, WA 98662']",45.68673,-122.59917
244,2AvPF67zCdCfKsBsks-WlQ,assistedliving,Parkhurst House,FALSE,15413874600,2450 May St,,,Hood River,97031,US,OR,"['2450 May St', 'Hood River, OR 97031']",45.70427855,-121.5369823
245,sMDyVgZ6EYJaePvirxhrzw,assistedliving,Powell Valley Assisted Living & Memory Care,FALSE,15036652496,4001 SE 182nd Ave,,,Gresham,97030,US,OR,"['4001 SE 182nd Ave', 'Gresham, OR 97030']",45.492471,-122.476358
246,jNg1NYuFPb1Sb8l2H3NGDA,retirement_homes;assistedliving;memorycare,Glenwood Place,FALSE,13608921100,5500 NE 82nd Ave,,,Vancouver,98223,US,WA,"['5500 NE 82nd Ave', 'Vancouver, WA 98223']",45.66180801,-122.5890503
247,qHUQphwln7jK-0vyTaattg,retirement_homes;assistedliving,Flagstone Senior Living,FALSE,15412985656,3325 Columbia View Dr,,,The Dalles,97058,US,OR,"['3325 Columbia View Dr', 'The Dalles, OR 97058']",45.60051,-121.13433
248,8_oyLqj-xuQIs-P0i65FVw,retirement_homes;assistedliving,Whitewood Gardens Residential Care,FALSE,15037649719,2027 SE 174th Ave,,,Portland,97233,US,OR,"['2027 SE 174th Ave', 'Portland, OR 97233']",45.50783,-122.485405
249,_CJpFiAq80SalMlFEfRKjw,assistedliving;memorycare,Miramont Pointe,FALSE,15036981600,11520 SE Sunnyside Rd,,,Clackamas,97015,US,OR,"['11520 SE Sunnyside Rd', 'Clackamas, OR 97015']",45.43092,-122.54548
250,9hEMGhI7cMy8bT8x9_2aAg,skillednursing;assistedliving;memorycare,Adult Living Alternatives,FALSE,15032880686,,,,Portland,97220,US,OR,"['Portland, OR 97220']",45.53274,-122.55255
251,ocE_Ayg2nUHNhdoNqKYJhQ,assistedliving;eldercareplanning;retirement_homes,Evergreen Place,FALSE,13608136885,2610 SE 164th Ave,,,Vancouver,98683,US,WA,"['2610 SE 164th Ave', 'Vancouver, WA 98683']",45.60236,-122.5048
252,3Gv7GUd23eE3371HzrHNRw,retirement_homes;assistedliving,Pacifica Senior Living Calaroga Terrace,FALSE,15038217543,1400 NE 2nd Ave,,,Portland,97232,US,OR,"['1400 NE 2nd Ave', 'Portland, OR 97232']",45.53329,-122.66317
253,QzoYXJDRsOhJfZOLJ69qpw,rehabilitation_center;assistedliving,Marquis Mt Tabor,FALSE,15032317166,6040 SE Belmont St,,,Portland,97215,US,OR,"['6040 SE Belmont St', 'Portland, OR 97215']",45.51632,-122.60092
254,98bzSIF_h7Zlnsdt4mO-zg,assistedliving,Princeton Village Assisted Living,FALSE,15035581215,14370 SE Oregon Trail Dr,,,Clackamas,97015,US,OR,"['14370 SE Oregon Trail Dr', 'Clackamas, OR 97015']",45.421611,-122.516487
255,bRyCxUxMRDsirb-x0Dui7A,assistedliving,Assisted Living at Summerplace,FALSE,15032529361,15727 NE Russell St,,,Portland,97230,US,OR,"['15727 NE Russell St', 'Portland, OR 97230']",45.54164,-122.50014
256,4YJWCc7UvI0TQDZXNNdz6g,assistedliving;retirement_homes,Bonaventure of Gresham,FALSE,15034271903,22514 SE Stark St,,,Gresham,97030,US,OR,"['22514 SE Stark St', 'Gresham, OR 97030']",45.518213,-122.430897
257,Oupytx3expA01KmrpRPi3A,assistedliving,Clearwater Springs Assisted Living Community,FALSE,13605463344,201 NW 78th St,,,Vancouver,98665,US,WA,"['201 NW 78th St', 'Vancouver, WA 98665']",45.67793274,-122.6715851
258,2xcD4eDH_-E0RD9bE5TaFQ,assistedliving;eldercareplanning;skillednursing,All About Seniors,FALSE,15036591410,15717 SE Mcloughlin Blvd,,,Milwaukie,97267,US,OR,"['15717 SE Mcloughlin Blvd', 'Milwaukie, OR 97267']",45.4093453,-122.6271702
259,6Z1d4_f0sYPH-7GjRjrclw,assistedliving,Royalton Place,FALSE,15036102188,5555 SE King Rd,,,Milwaukie,97222,US,OR,"['5555 SE King Rd', 'Milwaukie, OR 97222']",45.4487,-122.60617
260,-5cx_eJ_LywFiWWsfow5qw,retirement_homes;assistedliving;memorycare,Cherry Park Plaza,FALSE,15035734944,1323 SW Cherry Park Rd,,,Troutdale,97060,US,OR,"['1323 SW Cherry Park Rd', 'Troutdale, OR 97060']",45.53093,-122.40097
261,l6j1Mzz3IDkmstec6RURqw,assistedliving;homehealthcare;memorycare,Northwest Place,FALSE,15033054460,2420 NW Marshall St,,,Portland,97210,US,OR,"['2420 NW Marshall St', 'Portland, OR 97210']",45.53023,-122.70146
262,QkNloozkg2PLf8uYUYkpJg,assistedliving,Gilman Park,FALSE,15036575700,2205 Gilman Dr,,,Oregon City,97045,US,OR,"['2205 Gilman Dr', 'Oregon City, OR 97045']",45.354446,-122.586471
263,FtdZrc0VRmpwfsQYlaCsNQ,assistedliving;eldercareplanning,Hand In Hand Senior Placement Agency,FALSE,15034847994,2210 Maple Ter,,,West Linn,97068,US,OR,"['2210 Maple Ter', 'West Linn, OR 97068']",45.37599,-122.62591
264,ImeiByeL-Zr_tQIfzbPy0w,assistedliving,Mallard Landing,FALSE,13608590772,813 SE Clark Ave,,,Battle Ground,98604,US,WA,"['813 SE Clark Ave', 'Battle Ground, WA 98604']",45.77489,-122.52831
265,0sxh6Pzz1U-pqzOx1i_e7g,assistedliving,Oregon City Retirement Center,FALSE,15036560855,515 10th St,,,Oregon City,97045,US,OR,"['515 10th St', 'Oregon City, OR 97045']",45.359022,-122.602824
266,5RHSJgGuUW0Oveum57sDug,retirement_homes;assistedliving;memorycare,St. Andrews Memory Care,FALSE,15038678028,7617 SE Main St,,,Portland,97215,US,OR,"['7617 SE Main St', 'Portland, OR 97215']",45.5141479,-122.5847337
267,Xe-sSL17F_sgOuaVbaFsHw,assistedliving,Irvington Village,FALSE,15035469292,420 NE Mason St,,,Portland,97211,US,OR,"['420 NE Mason St', 'Portland, OR 97211']",45.55303574,-122.6610184
268,oUAgTHKtpRzwoe-CJWaAOg,assistedliving,Columbia Ridge Senior Living,FALSE,13603351238,2300 W 9th St,,,Washougal,98671,US,WA,"['2300 W 9th St', 'Washougal, WA 98671']",45.5932,-122.38385
269,qplae4ia9NcvqFH51XZ8-Q,retirement_homes;eldercareplanning;assistedliving,Right Fit Senior Living Solutions,FALSE,15035677268,12745 SW Beaverdam Rd,Ste 315,,Beaverton,97005,US,OR,"['12745 SW Beaverdam Rd', 'Ste 315', 'Beaverton, OR 97005']",45.48909,-122.80759
270,HoZ5ygmlznqkxqRldej5BQ,assistedliving,Pacifica Senior Living Vancouver,FALSE,13607194969,2400 NE 112th Ave,,,Vancouver,98684,US,WA,"['2400 NE 112th Ave', 'Vancouver, WA 98684']",45.63973,-122.55832
271,vWijp6RcWWj1-WTbADvXBg,assistedliving,Greenridge Estates,FALSE,15036358818,4 Greenridge Dr,,,Lake Oswego,97035,US,OR,"['4 Greenridge Dr', 'Lake Oswego, OR 97035']",45.430502,-122.703858
272,xmoeX-P2B8ujpO0GAIlmhw,assistedliving;skillednursing;homehealthcare,Brookdale Vancouver Orchards,FALSE,13602055910,10011 NE 118th Ave,,,Vancouver,98682,US,WA,"['10011 NE 118th Ave', 'Vancouver, WA 98682']",45.69482422,-122.5504684
273,1HWlRgujuvk4vLE7g0GeUg,retirement_homes;assistedliving,Russellville Park,FALSE,15032545900,20 SE 103rd Ave,,,Portland,97216,US,OR,"['20 SE 103rd Ave', 'Portland, OR 97216']",45.52212,-122.55627
274,AlP53iVN5C__ntfwK7JaCg,assistedliving,The Hampton & The Ashley Inn,FALSE,13602825882,1617 SE Talton Ave,,,Vancouver,98683,US,WA,"['1617 SE Talton Ave', 'Vancouver, WA 98683']",45.60905,-122.53571
275,mekDihUP3r6ddT9DYSzMuQ,retirement_homes;assistedliving,The Springs at Clackamas Woods,FALSE,15036533422,14404 SE Webster Rd,,,Milwaukie,97267,US,OR,"['14404 SE Webster Rd', 'Milwaukie, OR 97267']",45.4184579,-122.5919428
276,Wqh1RWtTcbqKaF0ZlBvFXw,assistedliving;retirement_homes;skillednursing,Avamere at Chestnut Lane,FALSE,15036740364,1219 NE 6th St,,,Gresham,97030,US,OR,"['1219 NE 6th St', 'Gresham, OR 97030']",45.5017,-122.4198
277,F0l-TdtRPYfE-x5GGFET8A,assistedliving,Prestige Assisted Living At Hazel Dell,FALSE,13606932402,7514 NE 13th Ave,,,Vancouver,98665,US,WA,"['7514 NE 13th Ave', 'Vancouver, WA 98665']",45.67695999,-122.6600723
278,EgnpnNtGv-mQ6nj60kRL-w,retirement_homes;assistedliving,Adara Oaks Manor,FALSE,15039123211,931 NE Linden Ave,,,Gresham,97030,US,OR,"['931 NE Linden Ave', 'Gresham, OR 97030']",45.5041952,-122.4238587
279,#NAME?,assistedliving,Jea Senior Living,FALSE,13602549442,5101 Ne 82nd Ave,Ste 200,,Vancouver,98682,US,WA,"['5101 Ne 82nd Ave', 'Ste 200', 'Vancouver, WA 98682']",45.659258,-122.5883106
280,5DgzTXAZ5J-Ph1qzvGL1lA,assistedliving;medcenters;rehabilitation_center,Porthaven Healthcare Center,FALSE,15032886585,5330 NE Prescott St,,,Portland,97218,US,OR,"['5330 NE Prescott St', 'Portland, OR 97218']",45.5550601,-122.6080599
281,XWFFsyqeGOlvGsPO-H9gUw,assistedliving,Hawthorne Gardens Senior Living Community,FALSE,19712220396,2828 SE Taylor St,,,Portland,97214,US,OR,"['2828 SE Taylor St', 'Portland, OR 97214']",45.514617,-122.63655
282,7-v219_Q4hbWuwjtUQSokw,assistedliving,Somerset Assisted Living,FALSE,19719255952,8360 Cason Rd,,,Gladstone,97027,US,OR,"['8360 Cason Rd', 'Gladstone, OR 97027']",45.39063,-122.58102
283,P3R1_KYlDoB-CQZlvazLrQ,assistedliving,Elmcroft of Sellwood,FALSE,15035424800,8517 SE 17th Ave,,,Portland,97202,US,OR,"['8517 SE 17th Ave', 'Portland, OR 97202']",45.46132,-122.64735
284,03p1cNqMoKBDiY9_ynLmEw,assistedliving,Milestone Retirement Community,FALSE,13608824500,13115 NE 4th St,Ste 120,,Vancouver,98684,US,WA,"['13115 NE 4th St', 'Ste 120', 'Vancouver, WA 98684']",45.62239456,-122.5375366
285,Y4gg7NRTRBJFcZZJ6RcwMw,assistedliving,Country Side Living,FALSE,15032663031,390 NW 2nd Ave,,,Canby,97013,US,OR,"['390 NW 2nd Ave', 'Canby, OR 97013']",45.26256,-122.6969
286,gp_YiCu5IWD4HncrCSEaZg,assistedliving;homehealthcare,Riverview Adult Care Home,FALSE,15035195409,17555 Upper Cherry Ln,,,Lake Oswego,97034,US,OR,"['17555 Upper Cherry Ln', 'Lake Oswego, OR 97034']",45.40216,-122.67015
287,sV9e-vMECIE62YyOFYvgxg,assistedliving;retirement_homes,Bonaventure of Salmon Creek,FALSE,13602582388,13700 NE Salmon Creek Ave,,,Vancouver,98686,US,WA,"['13700 NE Salmon Creek Ave', 'Vancouver, WA 98686']",45.720611,-122.638493
288,LV8mcjNuodlzgx5IG_slLw,assistedliving;memorycare;skillednursing,A Place for Mom,FALSE,15033741160,,,,Portland,97201,US,OR,"['Portland, OR 97201']",45.50965,-122.68278
289,rfBX68MP_YOo6W0Pm_ejTQ,homehealthcare;personalcare;assistedliving,Visiting Angels,FALSE,15032977000,2365 SW Cedar Hills Blvd,,,Portland,97225,US,OR,"['2365 SW Cedar Hills Blvd', 'Portland, OR 97225']",45.50304,-122.80402
290,qrJgGCi82enQNKv55QKQoA,rehabilitation_center;assistedliving;memorycare,Prestige Care - Milwaukie,FALSE,15036592323,12045 SE Stanley Ave,,,Milwaukie,97222,US,OR,"['12045 SE Stanley Ave', 'Milwaukie, OR 97222']",45.43607312,-122.6041908
291,e2YKN_YCb1AfFmhr40XCEQ,assistedliving,Homewood Heights Assisted Living,FALSE,15036596600,17999 SE River Rd,,,Portland,97267,US,OR,"['17999 SE River Rd', 'Portland, OR 97267']",45.39275742,-122.6221542
292,PEXugHzYK_p5C2ja5lsfBQ,assistedliving;memorycare,Fieldstone Cooper Point,FALSE,13609155764,810 Fieldstone Dr SW,,,Olympia,98502,US,WA,"['810 Fieldstone Dr SW', 'Olympia, WA 98502']",47.04276,-122.92665
293,PU04TXVEK9y2GTP8S7TO6A,assistedliving,Cooks Hill Manor Assisted Living,FALSE,13603883147,2010 Cooks Hill Rd,,,Centralia,98531,US,WA,"['2010 Cooks Hill Rd', 'Centralia, WA 98531']",46.7132099,-122.98773
294,W_zb8I5DPoexD7TVPn5V3A,assistedliving;homehealthcare;hospice,Haven in Allyn,FALSE,13602770636,180 E Wheelwright St,,,Allyn,98524,US,WA,"['180 E Wheelwright St', 'Allyn, WA 98524']",47.38088226,-122.8366394
295,MhCTtHMIQrochTAcmvtWhQ,assistedliving,The Firs,FALSE,13604641301,426 Lilly Rd NE,,,Olympia,98506,US,WA,"['426 Lilly Rd NE', 'Olympia, WA 98506']",47.05258,-122.84099
296,PEXugHzYK_p5C2ja5lsfBQ,assistedliving;memorycare,Fieldstone Cooper Point,FALSE,13609155764,810 Fieldstone Dr SW,,,Olympia,98502,US,WA,"['810 Fieldstone Dr SW', 'Olympia, WA 98502']",47.04276,-122.92665
297,j9y7djTyB_jKqJvjjj2WgA,assistedliving,Woodland by Bonaventure,FALSE,13603396361,4532 Intelco Lp SE,,,Lacey,98503,US,WA,"['4532 Intelco Lp SE', 'Lacey, WA 98503']",46.99699,-122.82987
298,O3gVATGjc117r-isa4zHqw,assistedliving,Bonaventure of Lacey,FALSE,13603395017,4528 Intelco Lp SE,,,Lacey,98503,US,WA,"['4528 Intelco Lp SE', 'Lacey, WA 98503']",46.99699,-122.8321
299,U1OpG5gHDk9_YyFjpgjA1g,assistedliving;eldercareplanning;retirement_homes,Artisan Place,FALSE,13603104146,828 McPhee Rd SW,,,Olympia,98502,US,WA,"['828 McPhee Rd SW', 'Olympia, WA 98502']",47.04013,-122.95233
300,7KZHbDrrmcQVZtYTb-Bzyw,assistedliving,Olympics West Retirement Inn,FALSE,13609439900,929 Trosper Rd SW,,,Tumwater,98512,US,WA,"['929 Trosper Rd SW', 'Tumwater, WA 98512']",46.9993,-122.92094
301,PU04TXVEK9y2GTP8S7TO6A,assistedliving,Cooks Hill Manor Assisted Living,FALSE,13603883147,2010 Cooks Hill Rd,,,Centralia,98531,US,WA,"['2010 Cooks Hill Rd', 'Centralia, WA 98531']",46.7132099,-122.98773
302,W_zb8I5DPoexD7TVPn5V3A,assistedliving;homehealthcare;hospice,Haven in Allyn,FALSE,13602770636,180 E Wheelwright St,,,Allyn,98524,US,WA,"['180 E Wheelwright St', 'Allyn, WA 98524']",47.38088226,-122.8366394
303,gTLDnYaK8cNk7IeSzGa7gg,homehealthcare;assistedliving;skillednursing,A1 Senior Care Advisors,FALSE,14253245592,16301 NE 8th St,Ste 121,,Bellevue,98008,US,WA,"['16301 NE 8th St', 'Ste 121', 'Bellevue, WA 98008']",47.616568,-122.123054
304,suRQ07yYoTsvcabQAyIejw,homehealthcare;skillednursing;assistedliving,Angel Senior Care,FALSE,15093264357,8512 N Wall St,,,Spokane,99208,US,WA,"['8512 N Wall St', 'Spokane, WA 99208']",47.7345158,-117.4218251
305,MhCTtHMIQrochTAcmvtWhQ,assistedliving,The Firs,FALSE,13604641301,426 Lilly Rd NE,,,Olympia,98506,US,WA,"['426 Lilly Rd NE', 'Olympia, WA 98506']",47.05258,-122.84099
306,Gmo4_yantSJZXv8pQatH_w,assistedliving,Rosemont Retirement & Assisted Living,FALSE,13604581800,215 NW Killion Rd,,,Yelm,98597,US,WA,"['215 NW Killion Rd', 'Yelm, WA 98597']",46.949596,-122.61775
307,PEXugHzYK_p5C2ja5lsfBQ,assistedliving;memorycare,Fieldstone Cooper Point,FALSE,13609155764,810 Fieldstone Dr SW,,,Olympia,98502,US,WA,"['810 Fieldstone Dr SW', 'Olympia, WA 98502']",47.04276,-122.92665
308,j9y7djTyB_jKqJvjjj2WgA,assistedliving,Woodland by Bonaventure,FALSE,13603396361,4532 Intelco Lp SE,,,Lacey,98503,US,WA,"['4532 Intelco Lp SE', 'Lacey, WA 98503']",46.99699,-122.82987
309,O3gVATGjc117r-isa4zHqw,assistedliving,Bonaventure of Lacey,FALSE,13603395017,4528 Intelco Lp SE,,,Lacey,98503,US,WA,"['4528 Intelco Lp SE', 'Lacey, WA 98503']",46.99699,-122.8321
310,2mXLJ65cjHaoQH0LvVPuCA,assistedliving;memorycare,Patriots Landing,FALSE,12539644900,1600 Marshall Cir,,,Dupont,98327,US,WA,"['1600 Marshall Cir', 'Dupont, WA 98327']",47.09463,-122.6552
311,PU04TXVEK9y2GTP8S7TO6A,assistedliving,Cooks Hill Manor Assisted Living,FALSE,13603883147,2010 Cooks Hill Rd,,,Centralia,98531,US,WA,"['2010 Cooks Hill Rd', 'Centralia, WA 98531']",46.7132099,-122.98773
312,7KZHbDrrmcQVZtYTb-Bzyw,assistedliving,Olympics West Retirement Inn,FALSE,13609439900,929 Trosper Rd SW,,,Tumwater,98512,US,WA,"['929 Trosper Rd SW', 'Tumwater, WA 98512']",46.9993,-122.92094
313,U1OpG5gHDk9_YyFjpgjA1g,assistedliving;eldercareplanning;retirement_homes,Artisan Place,FALSE,13603104146,828 McPhee Rd SW,,,Olympia,98502,US,WA,"['828 McPhee Rd SW', 'Olympia, WA 98502']",47.04013,-122.95233
314,8hYiU2iNBUmcOG-fRWxSdg,retirement_homes;assistedliving;memorycare,Meridian at Stone Creek,FALSE,12532143078,1111 S 376th St,,,Milton,98354,US,WA,"['1111 S 376th St', 'Milton, WA 98354']",47.26449,-122.32031
315,rrpMcgEO_Oan8m4DqcpJcg,homehealthcare;personalcare;assistedliving,Comfort Keepers,FALSE,12532000038,500 S 336th St,Ste 204,,Federal Way,98003,US,WA,"['500 S 336th St', 'Ste 204', 'Federal Way, WA 98003']",47.30075,-122.32763
316,cMcjgNMStIQapp2FulJ_Dw,retirement_homes;assistedliving,Merrill Gardens at Tacoma,FALSE,12532353826,7290 Rosemount Cir,,,Tacoma,98465,US,WA,"['7290 Rosemount Cir', 'Tacoma, WA 98465']",47.24314499,-122.5319595
317,2Zx63tEN1t9BZ38mQHyw8A,retirement_homes;assistedliving,Village Concepts of Milton - Mill Ridge Village,FALSE,12539259200,607 28th Ave,,,Milton,98354,US,WA,"['607 28th Ave', 'Milton, WA 98354']",47.252315,-122.2974151
318,hdrvsP8hupn-ELive6YYAw,assistedliving;retirement_homes;memorycare,Village Concepts of Auburn - Brannan Park,FALSE,12537362800,2901 I St NE,,,Auburn,98002,US,WA,"['2901 I St NE', 'Auburn, WA 98002']",47.33291,-122.21993
319,Xp7x6VBC1tQ4rFPNWBmzvg,assistedliving,Bridgeport Place Assisted Living,FALSE,12535791132,5250 Bridgeport Way W,,,University Place,98467,US,WA,"['5250 Bridgeport Way W', 'University Place, WA 98467']",47.20922,-122.53567
320,DE531k5iru4nn8mHrB_WaQ,assistedliving;personalcare,Amada Senior Care,FALSE,12538810014,3560 Bridgeport Way W,Ste 3-A,,University Place,98466,US,WA,"['3560 Bridgeport Way W', 'Ste 3-A', 'University Place, WA 98466']",47.22662,-122.53773
321,ZprUaLNG6iPVArk-0ZzECw,assistedliving,Sanders Estates Adult Family Home,FALSE,12535350119,524 160th St E,,,Tacoma,98445,US,WA,"['524 160th St E', 'Tacoma, WA 98445']",47.111536,-122.425361
322,fqGHfDQNuC0cpgOsDwxA4Q,assistedliving,Narrows Glen,FALSE,12532360304,8201 6th Ave,,Senior Resource Group,Tacoma,98406,US,WA,"['8201 6th Ave', 'Senior Resource Group', 'Tacoma, WA 98406']",47.2524142,-122.5460582
323,CJ_nMt9wUF0wVKsncgQw_Q,assistedliving;memorycare;personalcare,Weatherly Inn - Tacoma,FALSE,12537528550,6016 N Highlands Pkwy,,,Tacoma,98406,US,WA,"['6016 N Highlands Pkwy', 'Tacoma, WA 98406']",47.262454,-122.516724
324,qrC1cMnKjoqc8Kd72dPGUA,assistedliving;homehealthcare;retirement_homes,Bonney Lake Comfort Care,FALSE,12062262778,7035 Locust Ave E,,,Bonney Lake,98391,US,WA,"['7035 Locust Ave E', 'Bonney Lake, WA 98391']",47.19239,-122.181
325,sMRHT8mw_H6hh45vhV-tYg,assistedliving;retirement_homes,Village Concepts of Gig Harbor - Sound Vista Village,FALSE,12538519929,6633 McDonald Ave,,,Gig Harbor,98335,US,WA,"['6633 McDonald Ave', 'Gig Harbor, WA 98335']",47.3190259,-122.5833765
326,LfH0H9IqHmMbpyrPtCRrBA,assistedliving,Life Manor Assisted Living,FALSE,12537793800,1609 S Union Ave,,,Tacoma,98405,US,WA,"['1609 S Union Ave', 'Tacoma, WA 98405']",47.245279,-122.480367
327,W_zb8I5DPoexD7TVPn5V3A,assistedliving;homehealthcare;hospice,Haven in Allyn,FALSE,13602770636,180 E Wheelwright St,,,Allyn,98524,US,WA,"['180 E Wheelwright St', 'Allyn, WA 98524']",47.38088226,-122.8366394
328,PKp_sP2YWqOUidIE3O1V6A,assistedliving,Brookdale Puyallup South,FALSE,12534451300,8811 176th St E,,,Puyallup,98375,US,WA,"['8811 176th St E', 'Puyallup, WA 98375']",47.09743,-122.31241
329,qwO5VyLCuVdAPf4cBT23PQ,assistedliving;retirement_homes,Silver Creek by Bonaventure,FALSE,12532561145,17607 91st Ave E,,,Puyallup,98375,US,WA,"['17607 91st Ave E', 'Puyallup, WA 98375']",47.09563,-122.30777
330,PqS4FNzceRt98mn6GgdUoA,assistedliving,Cascade Park Gardens,FALSE,12534753702,4347 S Union Ave,,,Tacoma,98409,US,WA,"['4347 S Union Ave', 'Tacoma, WA 98409']",47.21694,-122.48298
331,ItQB_Zz9MVk7YrBXqJZ-vw,assistedliving;eldercareplanning;hospice,Family Values Adult Placement Agency,FALSE,13609847700,,,,Vancouver,98662,US,WA,"['Vancouver, WA 98662']",45.68673,-122.59917
332,eLk5m8IDW2Li9qnFbEd9hA,assistedliving;retirement_homes,Merrill Gardens at Auburn,FALSE,12533364858,18 1st St SE,,,Auburn,98002,US,WA,"['18 1st St SE', 'Auburn, WA 98002']",47.3063851,-122.2294621
333,Y9apOKlqYTy9iuJNyPqNew,retirement_homes;assistedliving,Cedar Ridge by Bonaventure,FALSE,12532994044,9515 198th Ave E,,,Bonney Lake,98391,US,WA,"['9515 198th Ave E', 'Bonney Lake, WA 98391']",47.17047,-122.16164
334,4b9DWjn6NB2rSj7BuRA82A,assistedliving;memorycare,GenCare Lifestyle Steel Lake,FALSE,12539415859,31200 23rd Ave S,,,Federal Way,98003,US,WA,"['31200 23rd Ave S', 'Federal Way, WA 98003']",47.32166,-122.30336
335,gTLDnYaK8cNk7IeSzGa7gg,homehealthcare;assistedliving;skillednursing,A1 Senior Care Advisors,FALSE,14253245592,16301 NE 8th St,Ste 121,,Bellevue,98008,US,WA,"['16301 NE 8th St', 'Ste 121', 'Bellevue, WA 98008']",47.616568,-122.123054
336,MhCTtHMIQrochTAcmvtWhQ,assistedliving,The Firs,FALSE,13604641301,426 Lilly Rd NE,,,Olympia,98506,US,WA,"['426 Lilly Rd NE', 'Olympia, WA 98506']",47.05258,-122.84099
337,PEXugHzYK_p5C2ja5lsfBQ,assistedliving;memorycare,Fieldstone Cooper Point,FALSE,13609155764,810 Fieldstone Dr SW,,,Olympia,98502,US,WA,"['810 Fieldstone Dr SW', 'Olympia, WA 98502']",47.04276,-122.92665
338,j9y7djTyB_jKqJvjjj2WgA,assistedliving,Woodland by Bonaventure,FALSE,13603396361,4532 Intelco Lp SE,,,Lacey,98503,US,WA,"['4532 Intelco Lp SE', 'Lacey, WA 98503']",46.99699,-122.82987
339,O3gVATGjc117r-isa4zHqw,assistedliving,Bonaventure of Lacey,FALSE,13603395017,4528 Intelco Lp SE,,,Lacey,98503,US,WA,"['4528 Intelco Lp SE', 'Lacey, WA 98503']",46.99699,-122.8321
340,U1OpG5gHDk9_YyFjpgjA1g,assistedliving;eldercareplanning;retirement_homes,Artisan Place,FALSE,13603104146,828 McPhee Rd SW,,,Olympia,98502,US,WA,"['828 McPhee Rd SW', 'Olympia, WA 98502']",47.04013,-122.95233
341,7KZHbDrrmcQVZtYTb-Bzyw,assistedliving,Olympics West Retirement Inn,FALSE,13609439900,929 Trosper Rd SW,,,Tumwater,98512,US,WA,"['929 Trosper Rd SW', 'Tumwater, WA 98512']",46.9993,-122.92094
342,Gmo4_yantSJZXv8pQatH_w,assistedliving,Rosemont Retirement & Assisted Living,FALSE,13604581800,215 NW Killion Rd,,,Yelm,98597,US,WA,"['215 NW Killion Rd', 'Yelm, WA 98597']",46.949596,-122.61775
343,2mXLJ65cjHaoQH0LvVPuCA,assistedliving;memorycare,Patriots Landing,FALSE,12539644900,1600 Marshall Cir,,,Dupont,98327,US,WA,"['1600 Marshall Cir', 'Dupont, WA 98327']",47.09463,-122.6552
344,PU04TXVEK9y2GTP8S7TO6A,assistedliving,Cooks Hill Manor Assisted Living,FALSE,13603883147,2010 Cooks Hill Rd,,,Centralia,98531,US,WA,"['2010 Cooks Hill Rd', 'Centralia, WA 98531']",46.7132099,-122.98773
345,W_zb8I5DPoexD7TVPn5V3A,assistedliving;homehealthcare;hospice,Haven in Allyn,FALSE,13602770636,180 E Wheelwright St,,,Allyn,98524,US,WA,"['180 E Wheelwright St', 'Allyn, WA 98524']",47.38088226,-122.8366394
346,qrC1cMnKjoqc8Kd72dPGUA,assistedliving;homehealthcare;retirement_homes,Bonney Lake Comfort Care,FALSE,12062262778,7035 Locust Ave E,,,Bonney Lake,98391,US,WA,"['7035 Locust Ave E', 'Bonney Lake, WA 98391']",47.19239,-122.181
347,xoZt2Nur07dAOialQk_n3w,assistedliving;retirement_homes,Park Vista by Bonaventure,FALSE,13603294507,2944 SE Lund Ave,,,Port Orchard,98366,US,WA,"['2944 SE Lund Ave', 'Port Orchard, WA 98366']",47.51888,-122.61118
348,gTLDnYaK8cNk7IeSzGa7gg,homehealthcare;assistedliving;skillednursing,A1 Senior Care Advisors,FALSE,14253245592,16301 NE 8th St,Ste 121,,Bellevue,98008,US,WA,"['16301 NE 8th St', 'Ste 121', 'Bellevue, WA 98008']",47.616568,-122.123054
349,QzzQVNULzHN3vkJE1KmSMQ,homehealthcare;personalcare;assistedliving,Care 4 All,FALSE,14252389960,,,,Snohomish,98296,US,WA,"['Snohomish, WA 98296']",47.86456299,-122.1438751
350,GHNOAuTN1FqM8nCRReOxug,assistedliving;memorycare,Pacifica Senior Living Snohomish,FALSE,13607995121,1124 Pine Ave,,,Snohomish,98290,US,WA,"['1124 Pine Ave', 'Snohomish, WA 98290']",47.92596,-122.08682
351,ph_GnjA3DoDZyCoYgytq7w,retirement_homes;assistedliving;memorycare,Washington Oakes,FALSE,14253393300,1717 Rockefeller Ave,,,Everett,98201,US,WA,"['1717 Rockefeller Ave', 'Everett, WA 98201']",47.99430994,-122.2048312
352,GBunknRqXeVqTstcnAV1bA,assistedliving,Senior Care Consultants,FALSE,12062281678,,,,Mill Creek,98012,US,WA,"['Mill Creek, WA 98012']",47.8601,-122.21838
353,SpcbcQMmmRkU8XtG_bTlhA,assistedliving,Family's Choice Care Adult Family Home,FALSE,14258770660,115 105th St SE,,,Everett,98208,US,WA,"['115 105th St SE', 'Everett, WA 98208']",47.90322,-122.23103
354,xpfFFRlEqCDQVQAd5ZfRoA,retirement_homes;assistedliving,North Creek by Bonaventure,FALSE,14252868185,1907 201st Pl SE,,,Bothell,98012,US,WA,"['1907 201st Pl SE', 'Bothell, WA 98012']",47.816388,-122.206757
355,xcxZeVuATtQy4Weu5ZaLJg,retirement_homes;assistedliving,Garden Court Retirement Community,FALSE,14254389080,520 112th St SW,,,Everett,98204,US,WA,"['520 112th St SW', 'Everett, WA 98204']",47.89567947,-122.2407303
356,vo_22ij-x3JPZVVL40x3Bg,assistedliving;memorycare,The Cottages At Mill Creek,FALSE,14253798276,13200 10th Dr SE,,,Mill Creek,98012,US,WA,"['13200 10th Dr SE', 'Mill Creek, WA 98012']",47.877852,-122.217214
357,43BdierqkYmBld2hUX5u-Q,assistedliving,North Creek Retirement and Assisted Living Community,FALSE,14254838927,1907 201st Pl SE,,,Bothell,98012,US,WA,"['1907 201st Pl SE', 'Bothell, WA 98012']",47.81687546,-122.2066803
358,71fjtqJqbitYZOHdsgEAVQ,retirement_homes;assistedliving;physicaltherapy,Regency Everett Rehabilitation and Nursing Center,FALSE,14252584474,5129 Hilltop Rd,,,Everett,98203,US,WA,"['5129 Hilltop Rd', 'Everett, WA 98203']",47.94993,-122.22793
359,vIjHzUOpQG2QMAH715gwIA,personalcare;hospice;assistedliving,Taylormade Care,FALSE,14252102228,6328 W Beech St,,,Everett,98203,US,WA,"['6328 W Beech St', 'Everett, WA 98203']",47.94014,-122.23636
360,hTHXsno_aExMzq_Wyxct0w,assistedliving,Abelia 1 Senior Home,FALSE,14252492405,5314 Beverly Ln,,,Everett,98203,US,WA,"['5314 Beverly Ln', 'Everett, WA 98203']",47.94855,-122.23042
361,ZHymouQbpBqTF_r-eSmP9w,assistedliving,Heritage Court,FALSE,14252597200,4230 Colby Ave,,,Everett,98203,US,WA,"['4230 Colby Ave', 'Everett, WA 98203']",47.96095657,-122.208252
362,W_zb8I5DPoexD7TVPn5V3A,assistedliving;homehealthcare;hospice,Haven in Allyn,FALSE,13602770636,180 E Wheelwright St,,,Allyn,98524,US,WA,"['180 E Wheelwright St', 'Allyn, WA 98524']",47.38088226,-122.8366394
363,2n_HRk6DJgEN2CDD2tU64Q,assistedliving;retirement_homes;eldercareplanning,Blossom Place,FALSE,15092041724,5100 W Nob Hill Blvd,,,Yakima,98908,US,WA,"['5100 W Nob Hill Blvd', 'Yakima, WA 98908']",46.58478717,-120.5756246
364,0rYcTM7UjNgLjp0nXrEhPg,retirement_homes;assistedliving,Pacifica Senior Living Ellensburg,FALSE,15093882482,818 E Mountain View Ave,,,Ellensburg,98926,US,WA,"['818 E Mountain View Ave', 'Ellensburg, WA 98926']",46.9835701,-120.5344315
365,5lkZs-d3hZVW2zFUhCmyng,assistedliving;memorycare,Elmcroft of Chesterley,FALSE,15094521010,1100 N 35th Ave,,,Yakima,98902,US,WA,"['1100 N 35th Ave', 'Yakima, WA 98902']",46.61619,-120.55626
366,gTLDnYaK8cNk7IeSzGa7gg,homehealthcare;assistedliving;skillednursing,A1 Senior Care Advisors,FALSE,14253245592,16301 NE 8th St,Ste 121,,Bellevue,98008,US,WA,"['16301 NE 8th St', 'Ste 121', 'Bellevue, WA 98008']",47.616568,-122.123054
367,h9nZQLendM_fYGvX1cm5jw,homehealthcare;assistedliving;personalcare,Visiting Angels,FALSE,15099221141,708 N Argonne Rd,Ste 8A,,Spokane Valley,99212,US,WA,"['708 N Argonne Rd', 'Ste 8A', 'Spokane Valley, WA 99212']",47.6635038,-117.2822946
368,6mpJ_Y0U31JuvYifCJmrSQ,assistedliving,Moran Vista Senior  Living,FALSE,15093432714,3319 E 57th Ave,,,Spokane,99223,US,WA,"['3319 E 57th Ave', 'Spokane, WA 99223']",47.60308838,-117.3623734
369,09qLnNfxVRrRmEAyDW7gfg,assistedliving;memorycare,The Renaissance at Coeur d'Alene,FALSE,12084162785,2772 W Avante Lp,,,Coeur d'Alene,83815,US,ID,"['2772 W Avante Lp', ""Coeur d'Alene, ID 83815""]",47.72222,-116.82277
370,ttv4lT9wmbPmzgJYOfDlbQ,retirement_homes;assistedliving;memorycare,Pacifica Senior Living Coeur d'Alene,FALSE,12084153932,840 E Dalton Ave,,,Coeur d Alene,83815,US,ID,"['840 E Dalton Ave', 'Coeur d Alene, ID 83815']",47.721954,-116.774707
371,suRQ07yYoTsvcabQAyIejw,homehealthcare;skillednursing;assistedliving,Angel Senior Care,FALSE,15093264357,8512 N Wall St,,,Spokane,99208,US,WA,"['8512 N Wall St', 'Spokane, WA 99208']",47.7345158,-117.4218251
372,FTNBeBYeP9eqGNa3F5Wobg,assistedliving,The Lodge At Riverside Harbor,FALSE,12086618635,52 N Cedar St,,,Post Falls,83854,US,ID,"['52 N Cedar St', 'Post Falls, ID 83854']",47.70536,-116.8829
373,jBvv3JSDeH7kXKp4-n1A3Q,assistedliving,Maplewood Retirement and Assisted Living,FALSE,15094899510,1100 North Superior St,,,Spokane,99202,US,WA,"['1100 North Superior St', 'Spokane, WA 99202']",47.66762924,-117.3922195
374,biNYlBIa08s0jqZ5yYql1w,assistedliving,Maple Wood Assisted Living,FALSE,12087629292,10547 N Reed Rd,,,Hayden,83835,US,ID,"['10547 N Reed Rd', 'Hayden, ID 83835']",47.7675514,-116.7982712
375,TYNTVFZ1hvIPt59dA3LvKg,assistedliving,Bristol Heights,FALSE,12086616862,2220 W Prairie Ave,,,Coeur d'Alene,83815,US,ID,"['2220 W Prairie Ave', ""Coeur d'Alene, ID 83815""]",47.74364,-116.81672
376,5keOiOJ1Ve47kN51xoYMfA,retirement_homes;assistedliving,Fairwinds - Spokane,FALSE,15094681000,520 E Holland Ave,,,Spokane,99218,US,WA,"['520 E Holland Ave', 'Spokane, WA 99218']",47.7432037,-117.4021238
377,mg6YuR1NNF-RXNeWA9ZUsw,skillednursing;assistedliving,Life Care Center - Coeur D'alene,FALSE,12087621122,500 W Aqua Ave,,,Coeur D Alene,83815,US,ID,"['500 W Aqua Ave', 'Coeur D Alene, ID 83815']",47.74109,-116.79413
378,akDl81gEBesjzDfHnhTpgg,assistedliving,Sullivan Park Assisted Living,FALSE,15099245555,421 S Adams Rd,,,Spokane Valley,99216,US,WA,"['421 S Adams Rd', 'Spokane Valley, WA 99216']",47.6519183,-117.2066552
379,g8XBltlsEN4UHgJGl6a-3A,homehealthcare;assistedliving,Wellspring Meadows Assisted Living,FALSE,12087629001,9873 N Buttercup Ln,,,Hayden,83835,US,ID,"['9873 N Buttercup Ln', 'Hayden, ID 83835']",47.76156,-116.79511
380,QzzQVNULzHN3vkJE1KmSMQ,homehealthcare;personalcare;assistedliving,Care 4 All,FALSE,14252389960,,,,Snohomish,98296,US,WA,"['Snohomish, WA 98296']",47.86456299,-122.1438751
381,GfZQbRDi_G-j0xxmqQ1e3w,assistedliving;memorycare,Patriot's Glen,FALSE,14253731161,1640 148th Ave SE,,,Bellevue,98007,US,WA,"['1640 148th Ave SE', 'Bellevue, WA 98007']",47.594931,-122.141952
382,1UJp1l0Y55KQAtWj1g7FTw,homehealthcare;assistedliving;personalcare,Visiting Angels,FALSE,14254418133,33410 SE Redmond-Fall City Rd,,,Fall City,98024,US,WA,"['33410 SE Redmond-Fall City Rd', 'Fall City, WA 98024']",47.5692749,-121.8932266
383,GHNOAuTN1FqM8nCRReOxug,assistedliving;memorycare,Pacifica Senior Living Snohomish,FALSE,13607995121,1124 Pine Ave,,,Snohomish,98290,US,WA,"['1124 Pine Ave', 'Snohomish, WA 98290']",47.92596,-122.08682
384,EKSPrcknIVRfVSJ1_KIpwA,retirement_homes;assistedliving;homehealthcare,Fairwinds Redmond,FALSE,14255584700,9988 Avondale Rd NE,,,Redmond,98052,US,WA,"['9988 Avondale Rd NE', 'Redmond, WA 98052']",47.68888,-122.09133
385,jRtjA3JKcetR9bnoKTnkZQ,retirement_homes;assistedliving,Peters Creek Retirement Community,FALSE,14258692273,14431 Redmond Way,,,Redmond,98052,US,WA,"['14431 Redmond Way', 'Redmond, WA 98052']",47.6743088,-122.1463928
386,sOxa9orKscnoKIvbPOPICg,assistedliving,Abundance Love,FALSE,12063512578,12819 NE 94th St,,,Kirkland,98033,US,WA,"['12819 NE 94th St', 'Kirkland, WA 98033']",47.68522843,-122.1685656
387,1n8fGUOQV_Dtexa5Uu4y3g,eldercareplanning;assistedliving,Bellevue Senior Care,FALSE,14254445752,235 154th Pl SE,,,Bellevue,98007,US,WA,"['235 154th Pl SE', 'Bellevue, WA 98007']",47.60687985,-122.1348599
388,5KY4JdX-zIusO0EMGB8qiA,assistedliving;memorycare,Aegis Lodge,FALSE,14259470105,12629 116th Ave NE,,,Kirkland,98034,US,WA,"['12629 116th Ave NE', 'Kirkland, WA 98034']",47.71348953,-122.1878738
389,nFD9B879DkoG8x7mkOf9_w,assistedliving;memorycare,Aegis Living Kirkland,FALSE,14259033092,13000 Totem Lake Blvd,,,Kirkland,98034,US,WA,"['13000 Totem Lake Blvd', 'Kirkland, WA 98034']",47.71714,-122.18557
390,oeJajySoLIi-e7vT0QQEyA,assistedliving,The Creekside,FALSE,14254099029,18200 Woodinville Snohomish Rd NE,,,Woodinville,98072,US,WA,"['18200 Woodinville Snohomish Rd NE', 'Woodinville, WA 98072']",47.76078,-122.15413
391,nhgZUOfVoyOhePmCI3bCkQ,assistedliving;memorycare,The Cottages at Marysville,FALSE,13603227561,1216 Grove St,,,Marysville,98270,US,WA,"['1216 Grove St', 'Marysville, WA 98270']",48.06099,-122.18107
392,BM0mnisJWZOuirn3kCDlYw,retirement_homes;assistedliving,Overlake Terrace Retirement Community,FALSE,14258830495,2956 152nd Ave NE,,,Redmond,98052,US,WA,"['2956 152nd Ave NE', 'Redmond, WA 98052']",47.636507,-122.135776
393,82vP7CBA6ZpHS-weJXAMqg,retirement_homes;assistedliving;memorycare,Fairwinds - Brittany Park,FALSE,14254027100,17143 133rd Ave NE,,,Woodinville,98072,US,WA,"['17143 133rd Ave NE', 'Woodinville, WA 98072']",47.751566,-122.1626946
394,gTLDnYaK8cNk7IeSzGa7gg,homehealthcare;assistedliving;skillednursing,A1 Senior Care Advisors,FALSE,14253245592,16301 NE 8th St,Ste 121,,Bellevue,98008,US,WA,"['16301 NE 8th St', 'Ste 121', 'Bellevue, WA 98008']",47.616568,-122.123054
395,i_n18zP7kgdGKJdHUXBZFw,retirement_homes;assistedliving;personalcare,Ashley Pointe,FALSE,14253667084,11117 20th St NE,,,Lake Stevens,98258,US,WA,"['11117 20th St NE', 'Lake Stevens, WA 98258']",48.0154902,-122.0809086
396,vQUSZGxw6ovUA02ir1BSog,assistedliving;memorycare,Aegis Living Redmond,FALSE,14257862040,7480 West Lake Sammamish Pkwy,,,Redmond,98052,US,WA,"['7480 West Lake Sammamish Pkwy', 'Redmond, WA 98052']",47.67109,-122.13148
397,1mlgkBOpGR4-Gp8Go6-Kkg,assistedliving;memorycare,Aegis Living Marymoor,FALSE,14259994074,4585 West Lake Sammamish Pkwy NE,,,Redmond,98052,US,WA,"['4585 West Lake Sammamish Pkwy NE', 'Redmond, WA 98052']",47.6500062,-122.1156164
398,KfuN7rGIkNeHtR06k84B0Q,homehealthcare;assistedliving;personalcare,Visiting Angels,FALSE,14258284500,12020 113th Ave NE,"Bldg C, Ste 180",,Kirkland,98034,US,WA,"['12020 113th Ave NE', 'Bldg C, Ste 180', 'Kirkland, WA 98034']",47.708045,-122.189759
399,aXnbG1oxTP-rKVPRxgB0Sw,eldercareplanning;assistedliving;retirement_homes,Bellevue Elderly Care,FALSE,12063490897,102 162nd Ave SE,,,Bellevue,98008,US,WA,"['102 162nd Ave SE', 'Bellevue, WA 98008']",47.608937,-122.12417
400,qflTzc50HdeCzEhRNHcrvQ,assistedliving,A GREAT LIFE Adult Family Home of Bellevue,FALSE,14253731849,417 158th Pl SE,,,Bellevue,98008,US,WA,"['417 158th Pl SE', 'Bellevue, WA 98008']",47.605567,-122.130058
401,5P2ON0zKjtDVMuBBD_MVIA,retirement_homes;assistedliving,GenCare Granite Falls at The Village,FALSE,13606911777,302 N Alder Ave,,,Granite Falls,98252,US,WA,"['302 N Alder Ave', 'Granite Falls, WA 98252']",48.085162,-121.964739
402,khtme-YBbgHFA-OjM33clg,assistedliving;memorycare;retirement_homes,Sunrise of Redmond,FALSE,14254010300,15241 NE 20thSt,,,Bellevue,98007,US,WA,"['15241 NE 20thSt', 'Bellevue, WA 98007']",47.62692,-122.13573
403,cMAtF1h3aHsxYfbxsiU5Mw,homehealthcare;assistedliving;rehabilitation_center,Magnolia Care,FALSE,14255990889,1113 E John St,,,Seattle,98102,US,WA,"['1113 E John St', 'Seattle, WA 98102']",47.61973,-122.31749
404,qrC1cMnKjoqc8Kd72dPGUA,assistedliving;homehealthcare;retirement_homes,Bonney Lake Comfort Care,FALSE,12062262778,7035 Locust Ave E,,,Bonney Lake,98391,US,WA,"['7035 Locust Ave E', 'Bonney Lake, WA 98391']",47.19239,-122.181
405,W_zb8I5DPoexD7TVPn5V3A,assistedliving;homehealthcare;hospice,Haven in Allyn,FALSE,13602770636,180 E Wheelwright St,,,Allyn,98524,US,WA,"['180 E Wheelwright St', 'Allyn, WA 98524']",47.38088226,-122.8366394
406,4QLwfgN7eBA61cKZ_H_VdQ,physicaltherapy;skillednursing;assistedliving,Canyon Lakes Restorative & Rehabilitation Center,FALSE,15095825900,2702 S Ely St,,,Kennewick,99337,US,WA,"['2702 S Ely St', 'Kennewick, WA 99337']",46.18294,-119.1597
407,#NAME?,assistedliving,A Part of the Family,FALSE,15095823287,2618 W 10th Ave,,,Kennewick,99336,US,WA,"['2618 W 10th Ave', 'Kennewick, WA 99336']",46.19887,-119.15548
408,kSV1PCtlhma6g1FaUDu6PQ,retirement_homes;assistedliving,Parkview Estates,FALSE,15097349773,7820 W Sixth Ave,,,Kennewick,99336,US,WA,"['7820 W Sixth Ave', 'Kennewick, WA 99336']",46.204209,-119.225736
409,2I0Z8EUKbyDrlDKP3T6fAQ,assistedliving,Careing Hands Adult Family Home,FALSE,15096190212,8610 W Bruneau Ave,,,Kennewick,99336,US,WA,"['8610 W Bruneau Ave', 'Kennewick, WA 99336']",46.21125,-119.23796
410,LYb2MJlYskFB___801FoLw,retirement_homes;assistedliving;memorycare,Bonaventure of Tri-Cities,FALSE,15095420905,1800 Bellerive Dr,,,Richland,99352,US,WA,"['1800 Bellerive Dr', 'Richland, WA 99352']",46.22846,-119.24992
411,8ClfpOfKdA-OUmjn-Cq6Zw,assistedliving,Richland Rehabilitation Center and Eagle Assisted Living,FALSE,15099468095,1745 Pike Ave,,,Richland,99354,US,WA,"['1745 Pike Ave', 'Richland, WA 99354']",46.29807281,-119.2789001
412,G1yqZE5bQOu_2oEVkMN_9Q,retirement_homes;assistedliving;memorycare,Royal Columbian Retirement Inn,FALSE,15095919974,5615 W Umatilla Ave,,,Kennewick,99336,US,WA,"['5615 W Umatilla Ave', 'Kennewick, WA 99336']",46.2263,-119.19754
413,DE531k5iru4nn8mHrB_WaQ,assistedliving;personalcare,Amada Senior Care,FALSE,12538810014,3560 Bridgeport Way W,Ste 3-A,,University Place,98466,US,WA,"['3560 Bridgeport Way W', 'Ste 3-A', 'University Place, WA 98466']",47.22662,-122.53773
414,cMcjgNMStIQapp2FulJ_Dw,retirement_homes;assistedliving,Merrill Gardens at Tacoma,FALSE,12532353826,7290 Rosemount Cir,,,Tacoma,98465,US,WA,"['7290 Rosemount Cir', 'Tacoma, WA 98465']",47.24314499,-122.5319595
415,Xp7x6VBC1tQ4rFPNWBmzvg,assistedliving,Bridgeport Place Assisted Living,FALSE,12535791132,5250 Bridgeport Way W,,,University Place,98467,US,WA,"['5250 Bridgeport Way W', 'University Place, WA 98467']",47.20922,-122.53567
416,fqGHfDQNuC0cpgOsDwxA4Q,assistedliving,Narrows Glen,FALSE,12532360304,8201 6th Ave,,Senior Resource Group,Tacoma,98406,US,WA,"['8201 6th Ave', 'Senior Resource Group', 'Tacoma, WA 98406']",47.2524142,-122.5460582
417,CJ_nMt9wUF0wVKsncgQw_Q,assistedliving;memorycare;personalcare,Weatherly Inn - Tacoma,FALSE,12537528550,6016 N Highlands Pkwy,,,Tacoma,98406,US,WA,"['6016 N Highlands Pkwy', 'Tacoma, WA 98406']",47.262454,-122.516724
418,qrC1cMnKjoqc8Kd72dPGUA,assistedliving;homehealthcare;retirement_homes,Bonney Lake Comfort Care,FALSE,12062262778,7035 Locust Ave E,,,Bonney Lake,98391,US,WA,"['7035 Locust Ave E', 'Bonney Lake, WA 98391']",47.19239,-122.181
419,W_zb8I5DPoexD7TVPn5V3A,assistedliving;homehealthcare;hospice,Haven in Allyn,FALSE,13602770636,180 E Wheelwright St,,,Allyn,98524,US,WA,"['180 E Wheelwright St', 'Allyn, WA 98524']",47.38088226,-122.8366394
420,gTLDnYaK8cNk7IeSzGa7gg,homehealthcare;assistedliving;skillednursing,A1 Senior Care Advisors,FALSE,14253245592,16301 NE 8th St,Ste 121,,Bellevue,98008,US,WA,"['16301 NE 8th St', 'Ste 121', 'Bellevue, WA 98008']",47.616568,-122.123054
421,ph_GnjA3DoDZyCoYgytq7w,retirement_homes;assistedliving;memorycare,Washington Oakes,FALSE,14253393300,1717 Rockefeller Ave,,,Everett,98201,US,WA,"['1717 Rockefeller Ave', 'Everett, WA 98201']",47.99430994,-122.2048312
422,SpcbcQMmmRkU8XtG_bTlhA,assistedliving,Family's Choice Care Adult Family Home,FALSE,14258770660,115 105th St SE,,,Everett,98208,US,WA,"['115 105th St SE', 'Everett, WA 98208']",47.90322,-122.23103
423,xcxZeVuATtQy4Weu5ZaLJg,retirement_homes;assistedliving,Garden Court Retirement Community,FALSE,14254389080,520 112th St SW,,,Everett,98204,US,WA,"['520 112th St SW', 'Everett, WA 98204']",47.89567947,-122.2407303
424,QzzQVNULzHN3vkJE1KmSMQ,homehealthcare;personalcare;assistedliving,Care 4 All,FALSE,14252389960,,,,Snohomish,98296,US,WA,"['Snohomish, WA 98296']",47.86456299,-122.1438751
425,71fjtqJqbitYZOHdsgEAVQ,retirement_homes;assistedliving;physicaltherapy,Regency Everett Rehabilitation and Nursing Center,FALSE,14252584474,5129 Hilltop Rd,,,Everett,98203,US,WA,"['5129 Hilltop Rd', 'Everett, WA 98203']",47.94993,-122.22793
426,vIjHzUOpQG2QMAH715gwIA,personalcare;hospice;assistedliving,Taylormade Care,FALSE,14252102228,6328 W Beech St,,,Everett,98203,US,WA,"['6328 W Beech St', 'Everett, WA 98203']",47.94014,-122.23636
427,hTHXsno_aExMzq_Wyxct0w,assistedliving,Abelia 1 Senior Home,FALSE,14252492405,5314 Beverly Ln,,,Everett,98203,US,WA,"['5314 Beverly Ln', 'Everett, WA 98203']",47.94855,-122.23042
428,GxdxVgeZN6wb1YrRJv7-Zw,retirement_homes;assistedliving;memorycare,Harbour Pointe Senior Living,FALSE,14254938555,10200 Harbour Pl,,,Mukilteo,98275,US,WA,"['10200 Harbour Pl', 'Mukilteo, WA 98275']",47.906345,-122.295637
429,GBunknRqXeVqTstcnAV1bA,assistedliving,Senior Care Consultants,FALSE,12062281678,,,,Mill Creek,98012,US,WA,"['Mill Creek, WA 98012']",47.8601,-122.21838
430,ZHymouQbpBqTF_r-eSmP9w,assistedliving,Heritage Court,FALSE,14252597200,4230 Colby Ave,,,Everett,98203,US,WA,"['4230 Colby Ave', 'Everett, WA 98203']",47.96095657,-122.208252
431,M2Lyfr7MJO7bWgi23oWP1Q,assistedliving,Paradise Park Adult Family Home,FALSE,,1106 Marine Dr NE,,,Tulalip,98271,US,WA,"['1106 Marine Dr NE', 'Tulalip, WA 98271']",48.04599,-122.21385
432,GHNOAuTN1FqM8nCRReOxug,assistedliving;memorycare,Pacifica Senior Living Snohomish,FALSE,13607995121,1124 Pine Ave,,,Snohomish,98290,US,WA,"['1124 Pine Ave', 'Snohomish, WA 98290']",47.92596,-122.08682
433,nhgZUOfVoyOhePmCI3bCkQ,assistedliving;memorycare,The Cottages at Marysville,FALSE,13603227561,1216 Grove St,,,Marysville,98270,US,WA,"['1216 Grove St', 'Marysville, WA 98270']",48.06099,-122.18107
434,vo_22ij-x3JPZVVL40x3Bg,assistedliving;memorycare,The Cottages At Mill Creek,FALSE,14253798276,13200 10th Dr SE,,,Mill Creek,98012,US,WA,"['13200 10th Dr SE', 'Mill Creek, WA 98012']",47.877852,-122.217214
435,RgCbo6tnlQ4UBjVdcsrpZQ,retirement_homes;assistedliving,Cristinas Adult Family Home,FALSE,14256788047,4204 172nd St SW,,,Lynnwood,98037,US,WA,"['4204 172nd St SW', 'Lynnwood, WA 98037']",47.84264,-122.29026
436,i_n18zP7kgdGKJdHUXBZFw,retirement_homes;assistedliving;personalcare,Ashley Pointe,FALSE,14253667084,11117 20th St NE,,,Lake Stevens,98258,US,WA,"['11117 20th St NE', 'Lake Stevens, WA 98258']",48.0154902,-122.0809086
437,sXDnhs9IRe3G0YZIVqyGjg,retirement_homes;assistedliving;memorycare,Quail Park of Lynnwood,FALSE,14256408529,4015 164th St SW,,,Lynnwood,98087,US,WA,"['4015 164th St SW', 'Lynnwood, WA 98087']",47.853039,-122.2877134
438,W_zb8I5DPoexD7TVPn5V3A,assistedliving;homehealthcare;hospice,Haven in Allyn,FALSE,13602770636,180 E Wheelwright St,,,Allyn,98524,US,WA,"['180 E Wheelwright St', 'Allyn, WA 98524']",47.38088226,-122.8366394
439,BNJuDIeQnwjGe9c3_jCTCA,assistedliving;emergencymedicine;rehabilitation_center,Columbia Basin Hospital,FALSE,15097544631,200 Nat Washington Way,,,Ephrata,98823,US,WA,"['200 Nat Washington Way', 'Ephrata, WA 98823']",47.3144582,-119.5465262
440,0dZNhaJqvBvWD2dRjwd0Rg,retirement_homes;assistedliving;memorycare,Silverado Bellingham Memory Care Community,FALSE,13607466675,4400 Columbine Dr,,,Bellingham,98226,US,WA,"['4400 Columbine Dr', 'Bellingham, WA 98226']",48.7997941,-122.4971972
441,9JbzvqsYk7qJHU5LOLXflw,assistedliving,Menno Hospital,FALSE,16048597631,32945 Marshall Road,,,Abbotsford,V2S 1K1,CA,BC,"['32945 Marshall Road', 'Abbotsford, BC V2S 1K1', 'Canada']",49.0384,-122.3119
442,XfVLzvC5Rk3YxiwVVAKU1Q,assistedliving,Highgate Senior Living,FALSE,13606711459,155 E Kellogg Rd,,,Bellingham,98226,US,WA,"['155 E Kellogg Rd', 'Bellingham, WA 98226']",48.794728,-122.483224
443,AteRhqvjFukRZz1w78kNWw,retirement_homes;assistedliving;memorycare,Cordata Court,FALSE,13607158822,4415 Columbine Dr,,,Bellingham,98226,US,WA,"['4415 Columbine Dr', 'Bellingham, WA 98226']",48.79915,-122.49789
444,QmNSlqpdrrkZV1vwDITDtg,retirement_homes;assistedliving,Spring Creek by Bonaventure,FALSE,13606841731,223 East Bakerview Rd,,,Bellingham,98226,US,WA,"['223 East Bakerview Rd', 'Bellingham, WA 98226']",48.78876,-122.48141
445,v9Kq2tUJnQSKYjcjxH00iA,retirement_homes;assistedliving,Woodway Assisted Living,FALSE,13603124865,1712 E Maplewood Ave,,,Bellingham,98225,US,WA,"['1712 E Maplewood Ave', 'Bellingham, WA 98225']",48.77273,-122.49391
446,Er_ACN1CG-wEDsi8bzZvWQ,assistedliving,Pacifica Retirement Residence,FALSE,16045359194,2525 King George Highway,,,Surrey,V4P 0C8,CA,BC,"['2525 King George Highway', 'Surrey, BC V4P 0C8', 'Canada']",49.04778,-122.79683
447,A6CcJwb6IhbnM9CPSr3Pmg,assistedliving,Homeplace Special Care,FALSE,13607557000,210 N Skagit St,,,Burlington,98233,US,WA,"['210 N Skagit St', 'Burlington, WA 98233']",48.47655487,-122.3185272
448,4EuVJYhTnCReSbBB5ueikw,assistedliving;memorycare;retirement_homes,Sunrise of Lynn Valley,FALSE,16049041226,980 Lynn Valley Road,,,North Vancouver,V7J 3V7,CA,BC,"['980 Lynn Valley Road', 'North Vancouver, BC V7J 3V7', 'Canada']",49.33269,-123.04723
449,r4nEc8JdYpOvZPQr9kiqHQ,homehealthcare,Always Best Care Senior Services,FALSE,17789453010,133 W 17th Street,,,North Vancouver,V7M 1V5,CA,BC,"['133 W 17th Street', 'North Vancouver, BC V7M 1V5', 'Canada']",49.323924,-123.073835
450,s4FcuR0nRM1MR4ZCBedMaQ,assistedliving,Village At the Harbour,FALSE,13603787144,543 Spring St,,,Friday Harbor,98250,US,WA,"['543 Spring St', 'Friday Harbor, WA 98250']",48.531578,-123.020482
451,0dZNhaJqvBvWD2dRjwd0Rg,retirement_homes;assistedliving;memorycare,Silverado Bellingham Memory Care Community,FALSE,13607466675,4400 Columbine Dr,,,Bellingham,98226,US,WA,"['4400 Columbine Dr', 'Bellingham, WA 98226']",48.7997941,-122.4971972
452,A6CcJwb6IhbnM9CPSr3Pmg,assistedliving,Homeplace Special Care,FALSE,13607557000,210 N Skagit St,,,Burlington,98233,US,WA,"['210 N Skagit St', 'Burlington, WA 98233']",48.47655487,-122.3185272
453,ZcyaRKN6ZochTkiRWob_oQ,assistedliving,The Bridge at Mount Vernon,FALSE,13604160400,301 S Laventure Rd,,,Mount Vernon,98274,US,WA,"['301 S Laventure Rd', 'Mount Vernon, WA 98274']",48.41925,-122.31391
454,BV8S0zMdMirgOmXXlkcOFg,skillednursing;assistedliving,Life Care Center - Mount Vernon,FALSE,13604244258,2120 E Division St,,,Mount Vernon,98274,US,WA,"['2120 E Division St', 'Mount Vernon, WA 98274']",48.42028,-122.31392
455,ph_GnjA3DoDZyCoYgytq7w,retirement_homes;assistedliving;memorycare,Washington Oakes,FALSE,14253393300,1717 Rockefeller Ave,,,Everett,98201,US,WA,"['1717 Rockefeller Ave', 'Everett, WA 98201']",47.99430994,-122.2048312
456,ZbF-cVZa2G6e-r0aPjcvww,retirement_homes;assistedliving;memorycare,Cascade Valley Senior Living,FALSE,13604366829,8400 207th Pl NE,,,Arlington,98223,US,WA,"['8400 207th Pl NE', 'Arlington, WA 98223']",48.1835499,-122.11745
457,QzzQVNULzHN3vkJE1KmSMQ,homehealthcare;personalcare;assistedliving,Care 4 All,FALSE,14252389960,,,,Snohomish,98296,US,WA,"['Snohomish, WA 98296']",47.86456299,-122.1438751
458,XfVLzvC5Rk3YxiwVVAKU1Q,assistedliving,Highgate Senior Living,FALSE,13606711459,155 E Kellogg Rd,,,Bellingham,98226,US,WA,"['155 E Kellogg Rd', 'Bellingham, WA 98226']",48.794728,-122.483224
459,nhgZUOfVoyOhePmCI3bCkQ,assistedliving;memorycare,The Cottages at Marysville,FALSE,13603227561,1216 Grove St,,,Marysville,98270,US,WA,"['1216 Grove St', 'Marysville, WA 98270']",48.06099,-122.18107
460,M2Lyfr7MJO7bWgi23oWP1Q,assistedliving,Paradise Park Adult Family Home,FALSE,,1106 Marine Dr NE,,,Tulalip,98271,US,WA,"['1106 Marine Dr NE', 'Tulalip, WA 98271']",48.04599,-122.21385
461,8FyycYKNgGqgwVpZj6Lf6g,retirement_homes;assistedliving,Olympic Place by Bonaventure,FALSE,13603224105,20909 Olympic Pl,,,Arlington,98223,US,WA,"['20909 Olympic Pl', 'Arlington, WA 98223']",48.18583,-122.12532
462,QmNSlqpdrrkZV1vwDITDtg,retirement_homes;assistedliving,Spring Creek by Bonaventure,FALSE,13606841731,223 East Bakerview Rd,,,Bellingham,98226,US,WA,"['223 East Bakerview Rd', 'Bellingham, WA 98226']",48.78876,-122.48141
463,AteRhqvjFukRZz1w78kNWw,retirement_homes;assistedliving;memorycare,Cordata Court,FALSE,13607158822,4415 Columbine Dr,,,Bellingham,98226,US,WA,"['4415 Columbine Dr', 'Bellingham, WA 98226']",48.79915,-122.49789
464,v9Kq2tUJnQSKYjcjxH00iA,retirement_homes;assistedliving,Woodway Assisted Living,FALSE,13603124865,1712 E Maplewood Ave,,,Bellingham,98225,US,WA,"['1712 E Maplewood Ave', 'Bellingham, WA 98225']",48.77273,-122.49391
465,9JbzvqsYk7qJHU5LOLXflw,assistedliving,Menno Hospital,FALSE,16048597631,32945 Marshall Road,,,Abbotsford,V2S 1K1,CA,BC,"['32945 Marshall Road', 'Abbotsford, BC V2S 1K1', 'Canada']",49.0384,-122.3119
466,i_n18zP7kgdGKJdHUXBZFw,retirement_homes;assistedliving;personalcare,Ashley Pointe,FALSE,14253667084,11117 20th St NE,,,Lake Stevens,98258,US,WA,"['11117 20th St NE', 'Lake Stevens, WA 98258']",48.0154902,-122.0809086
467,5P2ON0zKjtDVMuBBD_MVIA,retirement_homes;assistedliving,GenCare Granite Falls at The Village,FALSE,13606911777,302 N Alder Ave,,,Granite Falls,98252,US,WA,"['302 N Alder Ave', 'Granite Falls, WA 98252']",48.085162,-121.964739
468,b7rR9DHra09ToLgdif4kpg,assistedliving;hospice;personalcare,LaConner Retirement Inn & Assisted Living,FALSE,13604195458,204 N 1st St,,,LaConner,98257,US,WA,"['204 N 1st St', 'LaConner, WA 98257']",48.39327,-122.49537
469,qudfZxEig98BRn3YocORjw,retirement_homes;assistedliving,Maple Ridge by Bonaventure,FALSE,13602271852,1767 Alliance Ave,,,Freeland,98249,US,WA,"['1767 Alliance Ave', 'Freeland, WA 98249']",48.0108709,-122.5198327
470,W_zb8I5DPoexD7TVPn5V3A,assistedliving;homehealthcare;hospice,Haven in Allyn,FALSE,13602770636,180 E Wheelwright St,,,Allyn,98524,US,WA,"['180 E Wheelwright St', 'Allyn, WA 98524']",47.38088226,-122.8366394
471,5wdjsqavI3G7OtBGRbjBsA,assistedliving;memorycare,Aegis Living Shoreline,FALSE,12062793448,14900 1st Ave NE,,,Shoreline,98155,US,WA,"['14900 1st Ave NE', 'Shoreline, WA 98155']",47.73782,-122.32821
472,ZwpTK3Up2t46PRd6fXF6MQ,retirement_homes;assistedliving;rehabilitation_center,CRISTA Senior Living,FALSE,12065467565,19312 Kings Garden Dr N,,,Shoreline,98133,US,WA,"['19312 Kings Garden Dr N', 'Shoreline, WA 98133']",47.7695694,-122.3527848
473,qr4FMDQlWi_P-Z4Ab8UrTg,retirement_homes;assistedliving;memorycare,Emerald City Senior Living,FALSE,12067291200,9001 Lake City Way NE,,,Seattle,98115,US,WA,"['9001 Lake City Way NE', 'Seattle, WA 98115']",47.69452,-122.30602
474,TKy8upJxUbAsEXMLw104DA,memorycare;assistedliving;retirement_homes,Laurel Cove Community,FALSE,12063649336,17201 15th Ave NE,,,Shoreline,98155,US,WA,"['17201 15th Ave NE', 'Shoreline, WA 98155']",47.75433,-122.31475
