[[{"id": "9NXkfmXx4wLOLLTsSOOL1Q", "alias": "barstools-and-dinettes-north-bend", "name": "Barstools and Dinettes", "image_url": "https://s3-media2.fl.yelpcdn.com/bphoto/03JKoXUDPsVZDiKVkq6EJg/o.jpg", "is_closed": false, "url": "https://www.yelp.com/biz/barstools-and-dinettes-north-bend?adjust_creative=EQ9r9vED-d2_jQgXsuwaVw&utm_campaign=yelp_api_v3&utm_medium=api_v3_business_search&utm_source=EQ9r9vED-d2_jQgXsuwaVw", "review_count": 17, "categories": [{"alias": "furniture", "title": "Furniture Stores"}], "rating": 5.0, "coordinates": {"latitude": 47.492794, "longitude": -121.7879308}, "transactions": [], "price": "$$", "location": {"address1": "412 Main Ave S", "address2": "", "address3": "", "city": "North Bend", "zip_code": "98045", "country": "US", "state": "WA", "display_address": ["412 Main Ave S", "North Bend, WA 98045"]}, "phone": "+14253632175", "display_phone": "(425) 363-2175", "distance": 7230.5984496976625}, {"id": "jPcfzVzSdQZ_QoSaD1dKIQ", "alias": "keith-and-scott-tree-farm-north-bend", "name": "Keith & Scott Tree Farm", "image_url": "https://s3-media3.fl.yelpcdn.com/bphoto/eMrm3EqTG2htIspyx9mOow/o.jpg", "is_closed": false, "url": "https://www.yelp.com/biz/keith-and-scott-tree-farm-north-bend?adjust_creative=EQ9r9vED-d2_jQgXsuwaVw&utm_campaign=yelp_api_v3&utm_medium=api_v3_business_search&utm_source=EQ9r9vED-d2_jQgXsuwaVw", "review_count": 10, "categories": [{"alias": "homedecor", "title": "Home Decor"}], "rating": 5.0, "coordinates": {"latitude": 47.493792932957, "longitude": -121.773717399502}, "transactions": [], "price": "$$", "location": {"address1": "42999 SE 120th St", "address2": "", "address3": "", "city": "North Bend", "zip_code": "98045", "country": "US", "state": "WA", "display_address": ["42999 SE 120th St", "North Bend, WA 98045"]}, "phone": "+12069096954", "display_phone": "(206) 909-6954", "distance": 7604.268153847158}, {"id": "yL46QM42C2JpuoSHz_zJvw", "alias": "carmichaels-true-value-snoqualmie", "name": "Carmichael's True Value", "image_url": "https://s3-media4.fl.yelpcdn.com/bphoto/NcavxkPsmj8NgtgP4jbeZQ/o.jpg", "is_closed": false, "url": "https://www.yelp.com/biz/carmichaels-true-value-snoqualmie?adjust_creative=EQ9r9vED-d2_jQgXsuwaVw&utm_campaign=yelp_api_v3&utm_medium=api_v3_business_search&utm_source=EQ9r9vED-d2_jQgXsuwaVw", "review_count": 16, "categories": [{"alias": "hardware", "title": "Hardware Stores"}], "rating": 5.0, "coordinates": {"latitude": 47.52743, "longitude": -121.8231}, "transactions": [], "price": "$$", "location": {"address1": "8150 Falls Ave SE", "address2": "", "address3": "", "city": "Snoqualmie", "zip_code": "98065", "country": "US", "state": "WA", "display_address": ["8150 Falls Ave SE", "Snoqualmie, WA 98065"]}, "phone": "+14258881107", "display_phone": "(425) 888-1107", "distance": 11038.36573268158}, {"id": "1SgS8whfOGh1YIsoBOZVFw", "alias": "the-nursery-at-mount-si-north-bend", "name": "The Nursery At Mount Si", "image_url": "https://s3-media4.fl.yelpcdn.com/bphoto/4EryN_ejPFIj03SBxcwyvg/o.jpg", "is_closed": false, "url": "https://www.yelp.com/biz/the-nursery-at-mount-si-north-bend?adjust_creative=EQ9r9vED-d2_jQgXsuwaVw&utm_campaign=yelp_api_v3&utm_medium=api_v3_business_search&utm_source=EQ9r9vED-d2_jQgXsuwaVw", "review_count": 7, "categories": [{"alias": "gardening", "title": "Nurseries & Gardening"}], "rating": 5.0, "coordinates": {"latitude": 47.503683, "longitude": -121.774634}, "transactions": [], "price": "$$", "location": {"address1": "42328 SE 108th St", "address2": "", "address3": "", "city": "North Bend", "zip_code": "98045", "country": "US", "state": "WA", "display_address": ["42328 SE 108th St", "North Bend, WA 98045"]}, "phone": "+14258312274", "display_phone": "(425) 831-2274", "distance": 8636.670016043987}, {"id": "BpDch_dHYE4la-N1vbzgpA", "alias": "christmas-creek-tree-farm-north-bend", "name": "Christmas Creek Tree Farm", "image_url": "https://s3-media1.fl.yelpcdn.com/bphoto/_0eVslUoAVmNGhCwGK4Z7A/o.jpg", "is_closed": false, "url": "https://www.yelp.com/biz/christmas-creek-tree-farm-north-bend?adjust_creative=EQ9r9vED-d2_jQgXsuwaVw&utm_campaign=yelp_api_v3&utm_medium=api_v3_business_search&utm_source=EQ9r9vED-d2_jQgXsuwaVw", "review_count": 10, "categories": [{"alias": "christmastrees", "title": "Christmas Trees"}, {"alias": "vacation_rentals", "title": "Vacation Rentals"}, {"alias": "campgrounds", "title": "Campgrounds"}], "rating": 4.0, "coordinates": {"latitude": 47.4597, "longitude": -121.72018}, "transactions": [], "price": "$$", "location": {"address1": "15515 468th Ave SE", "address2": "", "address3": "", "city": "North Bend", "zip_code": "98045", "country": "US", "state": "WA", "display_address": ["15515 468th Ave SE", "North Bend, WA 98045"]}, "phone": "+12066371415", "display_phone": "(206) 637-1415", "distance": 7268.578007190793}, {"id": "sGYX9TGWUyIEBdqrT-XHhw", "alias": "cedar-falls-tree-farm-north-bend", "name": "Cedar Falls Tree Farm", "image_url": "https://s3-media2.fl.yelpcdn.com/bphoto/AoSdMT6M97v3GTRyj-WoaQ/o.jpg", "is_closed": false, "url": "https://www.yelp.com/biz/cedar-falls-tree-farm-north-bend?adjust_creative=EQ9r9vED-d2_jQgXsuwaVw&utm_campaign=yelp_api_v3&utm_medium=api_v3_business_search&utm_source=EQ9r9vED-d2_jQgXsuwaVw", "review_count": 6, "categories": [{"alias": "gardening", "title": "Nurseries & Gardening"}], "rating": 4.5, "coordinates": {"latitude": 47.46096, "longitude": -121.75565}, "transactions": [], "price": "$$", "location": {"address1": "15200 Cedar Falls Rd SE", "address2": "", "address3": "", "city": "North Bend", "zip_code": "98045", "country": "US", "state": "WA", "display_address": ["15200 Cedar Falls Rd SE", "North Bend, WA 98045"]}, "phone": "+14257853571", "display_phone": "(425) 785-3571", "distance": 5162.5865054635315}, {"id": "Zkk_K2a43B9rqMb-8tLTXg", "alias": "dahlia-barn-north-bend", "name": "Dahlia Barn", "image_url": "https://s3-media2.fl.yelpcdn.com/bphoto/a7PQ3emsbSLFHZcSLoBHuA/o.jpg", "is_closed": false, "url": "https://www.yelp.com/biz/dahlia-barn-north-bend?adjust_creative=EQ9r9vED-d2_jQgXsuwaVw&utm_campaign=yelp_api_v3&utm_medium=api_v3_business_search&utm_source=EQ9r9vED-d2_jQgXsuwaVw", "review_count": 15, "categories": [{"alias": "gardening", "title": "Nurseries & Gardening"}], "rating": 3.5, "coordinates": {"latitude": 47.4812240600586, "longitude": -121.74503326416}, "transactions": [], "price": "$", "location": {"address1": "13110 446th Ave SE", "address2": null, "address3": null, "city": "North Bend", "zip_code": "98045", "country": "US", "state": "WA", "display_address": ["13110 446th Ave SE", "North Bend, WA 98045"]}, "phone": "+14258882155", "display_phone": "(425) 888-2155", "distance": 7395.619682734972}, {"id": "hee04l0HJksaK7muBw-93w", "alias": "corningware-corelle-and-more-north-bend", "name": "Corningware Corelle & More", "image_url": "https://s3-media4.fl.yelpcdn.com/bphoto/r2dyU2nHMulFUZcLKqR-6A/o.jpg", "is_closed": false, "url": "https://www.yelp.com/biz/corningware-corelle-and-more-north-bend?adjust_creative=EQ9r9vED-d2_jQgXsuwaVw&utm_campaign=yelp_api_v3&utm_medium=api_v3_business_search&utm_source=EQ9r9vED-d2_jQgXsuwaVw", "review_count": 9, "categories": [{"alias": "kitchenandbath", "title": "Kitchen & Bath"}, {"alias": "outlet_stores", "title": "Outlet Stores"}], "rating": 4.0, "coordinates": {"latitude": 47.4919628, "longitude": -121.7945124}, "transactions": [], "price": "$$", "location": {"address1": "421 S Fork Ave SW", "address2": "", "address3": "", "city": "North Bend", "zip_code": "98045", "country": "US", "state": "WA", "display_address": ["421 S Fork Ave SW", "North Bend, WA 98045"]}, "phone": "+14258881516", "display_phone": "(425) 888-1516", "distance": 7065.375121305996}, {"id": "qD36mrWIVHYeFDZFWlvRQg", "alias": "ace-hardware-north-bend", "name": "Ace Hardware", "image_url": "https://s3-media1.fl.yelpcdn.com/bphoto/TrW3oHqKRM0qGrSovfn5JQ/o.jpg", "is_closed": false, "url": "https://www.yelp.com/biz/ace-hardware-north-bend?adjust_creative=EQ9r9vED-d2_jQgXsuwaVw&utm_campaign=yelp_api_v3&utm_medium=api_v3_business_search&utm_source=EQ9r9vED-d2_jQgXsuwaVw", "review_count": 15, "categories": [{"alias": "hardware", "title": "Hardware Stores"}], "rating": 3.5, "coordinates": {"latitude": 47.494277, "longitude": -121.786842}, "transactions": [], "price": "$$", "location": {"address1": "209 Main Ave S", "address2": "", "address3": "", "city": "North Bend", "zip_code": "98045", "country": "US", "state": "WA", "display_address": ["209 Main Ave S", "North Bend, WA 98045"]}, "phone": "+14258881242", "display_phone": "(425) 888-1242", "distance": 7401.952131447784}, {"id": "lcMcUMKQTUQlpdreCcTbYA", "alias": "north-bend-landscape-supply-north-bend-2", "name": "North Bend Landscape Supply", "image_url": "https://s3-media2.fl.yelpcdn.com/bphoto/73Y6X6nGTqa5TVPRt_bUuQ/o.jpg", "is_closed": false, "url": "https://www.yelp.com/biz/north-bend-landscape-supply-north-bend-2?adjust_creative=EQ9r9vED-d2_jQgXsuwaVw&utm_campaign=yelp_api_v3&utm_medium=api_v3_business_search&utm_source=EQ9r9vED-d2_jQgXsuwaVw", "review_count": 3, "categories": [{"alias": "gardening", "title": "Nurseries & Gardening"}, {"alias": "propane", "title": "Propane"}], "rating": 5.0, "coordinates": {"latitude": 47.48348, "longitude": -121.7624}, "transactions": [], "location": {"address1": "43300 SE North Bend Way", "address2": "", "address3": "", "city": "North Bend", "zip_code": "98045", "country": "US", "state": "WA", "display_address": ["43300 SE North Bend Way", "North Bend, WA 98045"]}, "phone": "+14258886502", "display_phone": "(425) 888-6502", "distance": 6924.1294729290385}, {"id": "xtoq4Iy6YpoepZWF69KTGw", "alias": "discount-tile-outlet-bellevue", "name": "Discount Tile Outlet", "image_url": "https://s3-media1.fl.yelpcdn.com/bphoto/qEMTfnmm7fWIAN3zvT2BdA/o.jpg", "is_closed": false, "url": "https://www.yelp.com/biz/discount-tile-outlet-bellevue?adjust_creative=EQ9r9vED-d2_jQgXsuwaVw&utm_campaign=yelp_api_v3&utm_medium=api_v3_business_search&utm_source=EQ9r9vED-d2_jQgXsuwaVw", "review_count": 46, "categories": [{"alias": "kitchenandbath", "title": "Kitchen & Bath"}, {"alias": "buildingsupplies", "title": "Building Supplies"}, {"alias": "contractors", "title": "Contractors"}], "rating": 4.0, "coordinates": {"latitude": 47.6228159, "longitude": -122.1651194}, "transactions": [], "price": "$$", "location": {"address1": "1405 132nd Ave NE", "address2": "Ste 1", "address3": "", "city": "Bellevue", "zip_code": "98005", "country": "US", "state": "WA", "display_address": ["1405 132nd Ave NE", "Ste 1", "Bellevue, WA 98005"]}, "phone": "+14256544144", "display_phone": "(425) 654-4144", "distance": 34563.028067574254}, {"id": "qRRHzcpHu-8HbydH7JqzJw", "alias": "aqua-quip-redmond-redmond", "name": "Aqua Quip - Redmond", "image_url": "https://s3-media4.fl.yelpcdn.com/bphoto/92zNIByyOdfZuJ8E8glT9Q/o.jpg", "is_closed": false, "url": "https://www.yelp.com/biz/aqua-quip-redmond-redmond?adjust_creative=EQ9r9vED-d2_jQgXsuwaVw&utm_campaign=yelp_api_v3&utm_medium=api_v3_business_search&utm_source=EQ9r9vED-d2_jQgXsuwaVw", "review_count": 40, "categories": [{"alias": "hottubandpool", "title": "Hot Tub & Pool"}, {"alias": "poolcleaners", "title": "Pool Cleaners"}, {"alias": "fireplace", "title": "Fireplace Services"}], "rating": 4.0, "coordinates": {"latitude": 47.67519, "longitude": -122.12607}, "transactions": [], "price": "$$", "location": {"address1": "8005 161st Ave NE", "address2": "", "address3": "", "city": "Redmond", "zip_code": "98052", "country": "US", "state": "WA", "display_address": ["8005 161st Ave NE", "Redmond, WA 98052"]}, "phone": "+14258951997", "display_phone": "(425) 895-1997", "distance": 36461.88511629229}, {"id": "3eFGi4lfm_kNNPY42SnqRA", "alias": "atlantic-tile-and-granite-kent", "name": "Atlantic Tile & Granite", "image_url": "https://s3-media2.fl.yelpcdn.com/bphoto/fPfaNtdNdZ554gWt2vPitw/o.jpg", "is_closed": false, "url": "https://www.yelp.com/biz/atlantic-tile-and-granite-kent?adjust_creative=EQ9r9vED-d2_jQgXsuwaVw&utm_campaign=yelp_api_v3&utm_medium=api_v3_business_search&utm_source=EQ9r9vED-d2_jQgXsuwaVw", "review_count": 18, "categories": [{"alias": "kitchenandbath", "title": "Kitchen & Bath"}, {"alias": "countertopinstall", "title": "Countertop Installation"}], "rating": 4.5, "coordinates": {"latitude": 47.4307391, "longitude": -122.2294215}, "transactions": [], "price": "$$", "location": {"address1": "8230 S 192nd St", "address2": "", "address3": "", "city": "Kent", "zip_code": "98032", "country": "US", "state": "WA", "display_address": ["8230 S 192nd St", "Kent, WA 98032"]}, "phone": "+12532773444", "display_phone": "(253) 277-3444", "distance": 31895.11641227384}, {"id": "Nw9Ycq4fKrKIKY2NSu_HNg", "alias": "pius-kitchen-and-bath-seattle", "name": "Pius Kitchen & Bath", "image_url": "https://s3-media2.fl.yelpcdn.com/bphoto/slQDXfA0gVpNFFfOydrkgQ/o.jpg", "is_closed": false, "url": "https://www.yelp.com/biz/pius-kitchen-and-bath-seattle?adjust_creative=EQ9r9vED-d2_jQgXsuwaVw&utm_campaign=yelp_api_v3&utm_medium=api_v3_business_search&utm_source=EQ9r9vED-d2_jQgXsuwaVw", "review_count": 166, "categories": [{"alias": "kitchenandbath", "title": "Kitchen & Bath"}, {"alias": "cabinetry", "title": "Cabinetry"}, {"alias": "countertopinstall", "title": "Countertop Installation"}], "rating": 3.0, "coordinates": {"latitude": 47.58005, "longitude": -122.33379}, "transactions": [], "price": "$$", "location": {"address1": "2462 1st Ave S", "address2": "", "address3": "", "city": "Seattle", "zip_code": "98134", "country": "US", "state": "WA", "display_address": ["2462 1st Ave S", "Seattle, WA 98134"]}, "phone": "+12063826638", "display_phone": "(206) 382-6638", "distance": 43099.49937263174}, {"id": "PsAc75vd-ujO2y6dQZ5MUw", "alias": "sewing-machine-service-renton", "name": "Sewing Machine Service", "image_url": "https://s3-media3.fl.yelpcdn.com/bphoto/8Q1m0VkzJhkKlc-Gj4YnHA/o.jpg", "is_closed": false, "url": "https://www.yelp.com/biz/sewing-machine-service-renton?adjust_creative=EQ9r9vED-d2_jQgXsuwaVw&utm_campaign=yelp_api_v3&utm_medium=api_v3_business_search&utm_source=EQ9r9vED-d2_jQgXsuwaVw", "review_count": 13, "categories": [{"alias": "homeappliancerepair", "title": "Appliances & Repair"}, {"alias": "appliances", "title": "Appliances"}], "rating": 4.5, "coordinates": {"latitude": 47.4791399, "longitude": -122.2045641}, "transactions": [], "location": {"address1": "315 Main Ave S", "address2": "", "address3": null, "city": "Renton", "zip_code": "98057", "country": "US", "state": "WA", "display_address": ["315 Main Ave S", "Renton, WA 98057"]}, "phone": "+14252558673", "display_phone": "(425) 255-8673", "distance": 30527.286584283866}, {"id": "MNy2ZYalUvwYgsthuJjO7g", "alias": "olympic-hot-tub-service-center-auburn", "name": "Olympic Hot Tub Service Center", "image_url": "https://s3-media3.fl.yelpcdn.com/bphoto/B6ULUjQBG7RQsS-uzmyaWw/o.jpg", "is_closed": false, "url": "https://www.yelp.com/biz/olympic-hot-tub-service-center-auburn?adjust_creative=EQ9r9vED-d2_jQgXsuwaVw&utm_campaign=yelp_api_v3&utm_medium=api_v3_business_search&utm_source=EQ9r9vED-d2_jQgXsuwaVw", "review_count": 7, "categories": [{"alias": "hottubandpool", "title": "Hot Tub & Pool"}, {"alias": "poolservice", "title": "Pool & Hot Tub Service"}, {"alias": "saunas", "title": "Saunas"}], "rating": 5.0, "coordinates": {"latitude": 47.319714, "longitude": -122.25045}, "transactions": [], "location": {"address1": "1307 W Valley Hwy N", "address2": "Ste 101", "address3": "", "city": "Auburn", "zip_code": "98001", "country": "US", "state": "WA", "display_address": ["1307 W Valley Hwy N", "Ste 101", "Auburn, WA 98001"]}, "phone": "+12064312876", "display_phone": "(206) 431-2876", "distance": 35641.16294772778}, {"id": "qQP9-Q3VG3IRVjAnfYCW2w", "alias": "provocatrix-snoqualmie", "name": "Provocatrix", "image_url": "https://s3-media1.fl.yelpcdn.com/bphoto/OmpeeaxP-8b8y3KDIxX_fw/o.jpg", "is_closed": false, "url": "https://www.yelp.com/biz/provocatrix-snoqualmie?adjust_creative=EQ9r9vED-d2_jQgXsuwaVw&utm_campaign=yelp_api_v3&utm_medium=api_v3_business_search&utm_source=EQ9r9vED-d2_jQgXsuwaVw", "review_count": 2, "categories": [{"alias": "interiordesign", "title": "Interior Design"}, {"alias": "homedecor", "title": "Home Decor"}, {"alias": "furniture", "title": "Furniture Stores"}], "rating": 5.0, "coordinates": {"latitude": 47.5275342767337, "longitude": -121.824296975463}, "transactions": [], "location": {"address1": "8130 Railroad Ave", "address2": "", "address3": null, "city": "Snoqualmie", "zip_code": "98065", "country": "US", "state": "WA", "display_address": ["8130 Railroad Ave", "Snoqualmie, WA 98065"]}, "phone": "+14252929794", "display_phone": "(425) 292-9794", "distance": 11064.319740401912}, {"id": "EVFC3aTVkHagYEMw7McQ1Q", "alias": "absolute-gm-kirkland-2", "name": "Absolute GM", "image_url": "https://s3-media3.fl.yelpcdn.com/bphoto/QtNBGZAjU60MqdTY8Svl6w/o.jpg", "is_closed": false, "url": "https://www.yelp.com/biz/absolute-gm-kirkland-2?adjust_creative=EQ9r9vED-d2_jQgXsuwaVw&utm_campaign=yelp_api_v3&utm_medium=api_v3_business_search&utm_source=EQ9r9vED-d2_jQgXsuwaVw", "review_count": 16, "categories": [{"alias": "countertopinstall", "title": "Countertop Installation"}, {"alias": "cabinetry", "title": "Cabinetry"}, {"alias": "kitchenandbath", "title": "Kitchen & Bath"}], "rating": 4.5, "coordinates": {"latitude": 47.70314, "longitude": -122.18291}, "transactions": [], "price": "$$", "location": {"address1": "11809 NE 116th St", "address2": null, "address3": "", "city": "Kirkland", "zip_code": "98033", "country": "US", "state": "WA", "display_address": ["11809 NE 116th St", "Kirkland, WA 98033"]}, "phone": "+14258141011", "display_phone": "(425) 814-1011", "distance": 41634.02853047259}, {"id": "TXIXGnUnglJTyu3VVtRS4w", "alias": "pacific-topsoils-issaquah", "name": "Pacific Topsoils", "image_url": "https://s3-media3.fl.yelpcdn.com/bphoto/UtyEYctzHeabfPxh9V8P6A/o.jpg", "is_closed": false, "url": "https://www.yelp.com/biz/pacific-topsoils-issaquah?adjust_creative=EQ9r9vED-d2_jQgXsuwaVw&utm_campaign=yelp_api_v3&utm_medium=api_v3_business_search&utm_source=EQ9r9vED-d2_jQgXsuwaVw", "review_count": 4, "categories": [{"alias": "buildingsupplies", "title": "Building Supplies"}, {"alias": "homeandgarden", "title": "Home & Garden"}, {"alias": "recyclingcenter", "title": "Recycling Center"}], "rating": 5.0, "coordinates": {"latitude": 47.512703, "longitude": -122.077496}, "transactions": [], "location": {"address1": "9830 Renton-Issaquah Rd SE", "address2": null, "address3": null, "city": "Issaquah", "zip_code": "98027", "country": "US", "state": "WA", "display_address": ["9830 Renton-Issaquah Rd SE", "Issaquah, WA 98027"]}, "phone": "+14253690906", "display_phone": "(425) 369-0906", "distance": 22475.498757187477}, {"id": "ercKSxIvsmY3BifvxeCCNg", "alias": "blk-diamond-exterior-solutions-black-diamond-3", "name": "Blk Diamond Exterior Solutions", "image_url": "https://s3-media4.fl.yelpcdn.com/bphoto/e40GxikFqKAugaRJwKi1Rg/o.jpg", "is_closed": false, "url": "https://www.yelp.com/biz/blk-diamond-exterior-solutions-black-diamond-3?adjust_creative=EQ9r9vED-d2_jQgXsuwaVw&utm_campaign=yelp_api_v3&utm_medium=api_v3_business_search&utm_source=EQ9r9vED-d2_jQgXsuwaVw", "review_count": 4, "categories": [{"alias": "windowwashing", "title": "Window Washing"}, {"alias": "seasonaldecorservices", "title": "Holiday Decorating Services"}, {"alias": "holidaydecorations", "title": "Holiday Decorations"}], "rating": 5.0, "coordinates": {"latitude": 47.31358, "longitude": -122.02378}, "transactions": [], "location": {"address1": "23906 Bruckners Ct", "address2": null, "address3": "", "city": "Black Diamond", "zip_code": "98010", "country": "US", "state": "WA", "display_address": ["23906 Bruckners Ct", "Black Diamond, WA 98010"]}, "phone": "+12062407725", "display_phone": "(206) 240-7725", "distance": 20850.19259372261}, {"id": "FcuukIlzc5tzV9s9YWOnFA", "alias": "kitchen-collection-north-bend", "name": "Kitchen Collection", "image_url": "https://s3-media3.fl.yelpcdn.com/bphoto/ndnp0izQvGK9n0kJj_g-Gg/o.jpg", "is_closed": false, "url": "https://www.yelp.com/biz/kitchen-collection-north-bend?adjust_creative=EQ9r9vED-d2_jQgXsuwaVw&utm_campaign=yelp_api_v3&utm_medium=api_v3_business_search&utm_source=EQ9r9vED-d2_jQgXsuwaVw", "review_count": 6, "categories": [{"alias": "kitchenandbath", "title": "Kitchen & Bath"}, {"alias": "appliances", "title": "Appliances"}], "rating": 2.0, "coordinates": {"latitude": 47.4920021534767, "longitude": -121.796871267529}, "transactions": [], "location": {"address1": "461 S Fork Ave SW", "address2": "Ste L", "address3": "", "city": "North Bend", "zip_code": "98045", "country": "US", "state": "WA", "display_address": ["461 S Fork Ave SW", "Ste L", "North Bend, WA 98045"]}, "phone": "+14258884666", "display_phone": "(425) 888-4666", "distance": 7051.35253923451}, {"id": "I46VVNq4TV3g9gUOPxNqBw", "alias": "abs-cabinets-and-counters-seattle-4", "name": "ABS Cabinets & Counters", "image_url": "https://s3-media4.fl.yelpcdn.com/bphoto/-Ivp1yu19SDJ-shlmNHhVA/o.jpg", "is_closed": false, "url": "https://www.yelp.com/biz/abs-cabinets-and-counters-seattle-4?adjust_creative=EQ9r9vED-d2_jQgXsuwaVw&utm_campaign=yelp_api_v3&utm_medium=api_v3_business_search&utm_source=EQ9r9vED-d2_jQgXsuwaVw", "review_count": 18, "categories": [{"alias": "cabinetry", "title": "Cabinetry"}, {"alias": "countertopinstall", "title": "Countertop Installation"}, {"alias": "kitchenandbath", "title": "Kitchen & Bath"}], "rating": 4.0, "coordinates": {"latitude": 47.5543690509848, "longitude": -122.329926}, "transactions": [], "location": {"address1": "5315 4th Ave S", "address2": null, "address3": "", "city": "Seattle", "zip_code": "98108", "country": "US", "state": "WA", "display_address": ["5315 4th Ave S", "Seattle, WA 98108"]}, "phone": "+12067620564", "display_phone": "(206) 762-0564", "distance": 41806.700453749305}, {"id": "3LCFGM21ud7CxpcDEspPrA", "alias": "kelleys-carpets-and-rug-solutions-kent-2", "name": "Kelley's Carpets & Rug Solutions", "image_url": "https://s3-media2.fl.yelpcdn.com/bphoto/LH1gFBPvA8wrJ93sBwvFZw/o.jpg", "is_closed": false, "url": "https://www.yelp.com/biz/kelleys-carpets-and-rug-solutions-kent-2?adjust_creative=EQ9r9vED-d2_jQgXsuwaVw&utm_campaign=yelp_api_v3&utm_medium=api_v3_business_search&utm_source=EQ9r9vED-d2_jQgXsuwaVw", "review_count": 7, "categories": [{"alias": "carpeting", "title": "Carpeting"}, {"alias": "rugs", "title": "Rugs"}], "rating": 5.0, "coordinates": {"latitude": 47.613569753974, "longitude": -122.141704559326}, "transactions": [], "price": "$$", "location": {"address1": "14531 SE 276th Pl", "address2": "", "address3": "", "city": "Kent", "zip_code": "98042", "country": "US", "state": "WA", "display_address": ["14531 SE 276th Pl", "Kent, WA 98042"]}, "phone": "+12064918870", "display_phone": "(206) 491-8870", "distance": 32550.718666651923}, {"id": "6G0PxEk0RR5cgD8KDE0f0Q", "alias": "creative-by-design-remodels-issaquah-4", "name": "Creative By Design Remodels", "image_url": "https://s3-media1.fl.yelpcdn.com/bphoto/ZQ_EfI5qGLssTTg8dw-1cg/o.jpg", "is_closed": false, "url": "https://www.yelp.com/biz/creative-by-design-remodels-issaquah-4?adjust_creative=EQ9r9vED-d2_jQgXsuwaVw&utm_campaign=yelp_api_v3&utm_medium=api_v3_business_search&utm_source=EQ9r9vED-d2_jQgXsuwaVw", "review_count": 9, "categories": [{"alias": "contractors", "title": "Contractors"}, {"alias": "interiordesign", "title": "Interior Design"}, {"alias": "kitchenandbath", "title": "Kitchen & Bath"}], "rating": 4.0, "coordinates": {"latitude": 47.53497, "longitude": -122.04196}, "transactions": [], "location": {"address1": "", "address2": null, "address3": "", "city": "Issaquah", "zip_code": "98027", "country": "US", "state": "WA", "display_address": ["Issaquah, WA 98027"]}, "phone": "+12063543568", "display_phone": "(206) 354-3568", "distance": 20452.012317642853}, {"id": "xKd7kY8e55RBqa5xLW1OdQ", "alias": "gs-building-supply-seattle-2", "name": "GS Building Supply", "image_url": "https://s3-media3.fl.yelpcdn.com/bphoto/hkk6tKYHl3Pz-xOQwpUyPA/o.jpg", "is_closed": false, "url": "https://www.yelp.com/biz/gs-building-supply-seattle-2?adjust_creative=EQ9r9vED-d2_jQgXsuwaVw&utm_campaign=yelp_api_v3&utm_medium=api_v3_business_search&utm_source=EQ9r9vED-d2_jQgXsuwaVw", "review_count": 76, "categories": [{"alias": "countertopinstall", "title": "Countertop Installation"}, {"alias": "cabinetry", "title": "Cabinetry"}, {"alias": "kitchenandbath", "title": "Kitchen & Bath"}], "rating": 3.0, "coordinates": {"latitude": 47.57509, "longitude": -122.32831}, "transactions": [], "price": "$$", "location": {"address1": "3200 4th Ave S", "address2": null, "address3": null, "city": "Seattle", "zip_code": "98134", "country": "US", "state": "WA", "display_address": ["3200 4th Ave S", "Seattle, WA 98134"]}, "phone": "+12064475788", "display_phone": "(206) 447-5788", "distance": 42533.661819047455}, {"id": "x2b83oqWh0iuI2HsvjBMOA", "alias": "aqua-spas-and-pools-gig-harbor-2", "name": "Aqua Spas and Pools", "image_url": "https://s3-media3.fl.yelpcdn.com/bphoto/z6zPct1qv_3CmywchQPhOA/o.jpg", "is_closed": false, "url": "https://www.yelp.com/biz/aqua-spas-and-pools-gig-harbor-2?adjust_creative=EQ9r9vED-d2_jQgXsuwaVw&utm_campaign=yelp_api_v3&utm_medium=api_v3_business_search&utm_source=EQ9r9vED-d2_jQgXsuwaVw", "review_count": 15, "categories": [{"alias": "hottubandpool", "title": "Hot Tub & Pool"}, {"alias": "poolcleaners", "title": "Pool Cleaners"}, {"alias": "poolservice", "title": "Pool & Hot Tub Service"}], "rating": 4.5, "coordinates": {"latitude": 47.2820372, "longitude": -122.5617742}, "transactions": [], "price": "$$", "location": {"address1": "2609 F Jahn Ave NW", "address2": null, "address3": null, "city": "Gig Harbor", "zip_code": "98335", "country": "US", "state": "WA", "display_address": ["2609 F Jahn Ave NW", "Gig Harbor, WA 98335"]}, "phone": "+12538516942", "display_phone": "(253) 851-6942", "distance": 59267.575309291824}, {"id": "h7pQTRwZjbkbJJ0myr1CGg", "alias": "tub-cove-inc-seattle", "name": "Tub Cove, Inc", "image_url": "https://s3-media2.fl.yelpcdn.com/bphoto/SaKfIRcQLcukbwyqM9BoqA/o.jpg", "is_closed": false, "url": "https://www.yelp.com/biz/tub-cove-inc-seattle?adjust_creative=EQ9r9vED-d2_jQgXsuwaVw&utm_campaign=yelp_api_v3&utm_medium=api_v3_business_search&utm_source=EQ9r9vED-d2_jQgXsuwaVw", "review_count": 17, "categories": [{"alias": "kitchenandbath", "title": "Kitchen & Bath"}, {"alias": "plumbing", "title": "Plumbing"}], "rating": 4.0, "coordinates": {"latitude": 47.6854299, "longitude": -122.31535}, "transactions": [], "price": "$$", "location": {"address1": "7801 Lake City Way NE", "address2": "", "address3": "", "city": "Seattle", "zip_code": "98115", "country": "US", "state": "WA", "display_address": ["7801 Lake City Way NE", "Seattle, WA 98115"]}, "phone": "+12065221711", "display_phone": "(206) 522-1711", "distance": 47730.11467540966}, {"id": "Rb6gfdnIfrY4xD0Aw_n0xw", "alias": "granite-transformations-of-seattle-seattle-4", "name": "Granite Transformations of Seattle", "image_url": "https://s3-media1.fl.yelpcdn.com/bphoto/vlfvY3hBVJCsn4lUiAYzng/o.jpg", "is_closed": false, "url": "https://www.yelp.com/biz/granite-transformations-of-seattle-seattle-4?adjust_creative=EQ9r9vED-d2_jQgXsuwaVw&utm_campaign=yelp_api_v3&utm_medium=api_v3_business_search&utm_source=EQ9r9vED-d2_jQgXsuwaVw", "review_count": 18, "categories": [{"alias": "kitchenandbath", "title": "Kitchen & Bath"}, {"alias": "countertopinstall", "title": "Countertop Installation"}, {"alias": "cabinetry", "title": "Cabinetry"}], "rating": 3.5, "coordinates": {"latitude": 47.61125, "longitude": -122.33493}, "transactions": [], "price": "$$$", "location": {"address1": "", "address2": "", "address3": "", "city": "Seattle", "zip_code": "98101", "country": "US", "state": "WA", "display_address": ["Seattle, WA 98101"]}, "phone": "+12062787805", "display_phone": "(206) 278-7805", "distance": 44598.008317459506}, {"id": "FTvBJvfNU0dIY5QcNMcU2Q", "alias": "cascadia-spas-and-stoves-north-bend", "name": "Cascadia Spas and Stoves", "image_url": "", "is_closed": false, "url": "https://www.yelp.com/biz/cascadia-spas-and-stoves-north-bend?adjust_creative=EQ9r9vED-d2_jQgXsuwaVw&utm_campaign=yelp_api_v3&utm_medium=api_v3_business_search&utm_source=EQ9r9vED-d2_jQgXsuwaVw", "review_count": 1, "categories": [{"alias": "homeandgarden", "title": "Home & Garden"}], "rating": 5.0, "coordinates": {"latitude": 47.49454, "longitude": -121.78559}, "transactions": [], "location": {"address1": "111 E North Bend Way", "address2": null, "address3": null, "city": "North Bend", "zip_code": "98045", "country": "US", "state": "WA", "display_address": ["111 E North Bend Way", "North Bend, WA 98045"]}, "phone": "+14258318828", "display_phone": "(425) 831-8828", "distance": 7458.227045372609}, {"id": "BfW8DGh9ZFDPmKObpM7ogQ", "alias": "seldens-designer-home-furnishings-bellevue-2", "name": "Seldens Designer Home Furnishings", "image_url": "https://s3-media1.fl.yelpcdn.com/bphoto/wrPE0GRgrAkSEP_MsRvuDg/o.jpg", "is_closed": false, "url": "https://www.yelp.com/biz/seldens-designer-home-furnishings-bellevue-2?adjust_creative=EQ9r9vED-d2_jQgXsuwaVw&utm_campaign=yelp_api_v3&utm_medium=api_v3_business_search&utm_source=EQ9r9vED-d2_jQgXsuwaVw", "review_count": 4, "categories": [{"alias": "interiordesign", "title": "Interior Design"}, {"alias": "furniture", "title": "Furniture Stores"}, {"alias": "mattresses", "title": "Mattresses"}], "rating": 4.0, "coordinates": {"latitude": 47.6103255025738, "longitude": -122.196903198148}, "transactions": [], "price": "$$$", "location": {"address1": "10708 Main St", "address2": "Ste 300", "address3": "", "city": "Bellevue", "zip_code": "98004", "country": "US", "state": "WA", "display_address": ["10708 Main St", "Ste 300", "Bellevue, WA 98004"]}, "phone": "+14254509999", "display_phone": "(425) 450-9999", "distance": 35657.142046414585}, {"id": "ns97ogfBJBNQqNGlJELj4w", "alias": "ja-designs-monroe", "name": "JA Designs", "image_url": "https://s3-media1.fl.yelpcdn.com/bphoto/heKTLVWSMj6KbHIPmzPeEA/o.jpg", "is_closed": false, "url": "https://www.yelp.com/biz/ja-designs-monroe?adjust_creative=EQ9r9vED-d2_jQgXsuwaVw&utm_campaign=yelp_api_v3&utm_medium=api_v3_business_search&utm_source=EQ9r9vED-d2_jQgXsuwaVw", "review_count": 5, "categories": [{"alias": "carpenters", "title": "Carpenters"}, {"alias": "interiordesign", "title": "Interior Design"}, {"alias": "furniture", "title": "Furniture Stores"}], "rating": 4.5, "coordinates": {"latitude": 47.85553, "longitude": -121.91977}, "transactions": [], "price": "$$$", "location": {"address1": "", "address2": null, "address3": "", "city": "Monroe", "zip_code": "98272", "country": "US", "state": "WA", "display_address": ["Monroe, WA 98272"]}, "phone": "+14252441245", "display_phone": "(425) 244-1245", "distance": 49022.06801387822}, {"id": "Mqy2qykeVpFJ_GGY3sdY9A", "alias": "stoves-pipes-com-north-bend", "name": "stoves-pipes.com", "image_url": "", "is_closed": false, "url": "https://www.yelp.com/biz/stoves-pipes-com-north-bend?adjust_creative=EQ9r9vED-d2_jQgXsuwaVw&utm_campaign=yelp_api_v3&utm_medium=api_v3_business_search&utm_source=EQ9r9vED-d2_jQgXsuwaVw", "review_count": 1, "categories": [{"alias": "hardware", "title": "Hardware Stores"}], "rating": 3.0, "coordinates": {"latitude": 47.4956579, "longitude": -121.7867775}, "transactions": [], "location": {"address1": "", "address2": "", "address3": "", "city": "North Bend", "zip_code": "98045", "country": "US", "state": "WA", "display_address": ["North Bend, WA 98045"]}, "phone": "+18888509663", "display_phone": "(888) 850-9663", "distance": 7559.54849023839}, {"id": "ebmHU2XkC8EMc2N2bkUoFg", "alias": "northlight-interiors-sumner-2", "name": "Northlight Interiors", "image_url": "https://s3-media2.fl.yelpcdn.com/bphoto/2vWVu8HSgFuRH-bLTG6U8w/o.jpg", "is_closed": false, "url": "https://www.yelp.com/biz/northlight-interiors-sumner-2?adjust_creative=EQ9r9vED-d2_jQgXsuwaVw&utm_campaign=yelp_api_v3&utm_medium=api_v3_business_search&utm_source=EQ9r9vED-d2_jQgXsuwaVw", "review_count": 2, "categories": [{"alias": "interiordesign", "title": "Interior Design"}, {"alias": "homedecor", "title": "Home Decor"}, {"alias": "rugs", "title": "Rugs"}], "rating": 5.0, "coordinates": {"latitude": 47.2035243, "longitude": -122.2400534}, "transactions": [], "location": {"address1": "1119 Main St", "address2": null, "address3": null, "city": "Sumner", "zip_code": "98390", "country": "US", "state": "WA", "display_address": ["1119 Main St", "Sumner, WA 98390"]}, "phone": "+12538260339", "display_phone": "(253) 826-0339", "distance": 41246.61632841561}, {"id": "mHHKoHGmzV1kK7TR9no-fA", "alias": "trimlight-seattle-woodinville", "name": "Trimlight Seattle", "image_url": "https://s3-media2.fl.yelpcdn.com/bphoto/vCWQ2eEcnfwCLJmU8d0wOQ/o.jpg", "is_closed": false, "url": "https://www.yelp.com/biz/trimlight-seattle-woodinville?adjust_creative=EQ9r9vED-d2_jQgXsuwaVw&utm_campaign=yelp_api_v3&utm_medium=api_v3_business_search&utm_source=EQ9r9vED-d2_jQgXsuwaVw", "review_count": 2, "categories": [{"alias": "lighting", "title": "Lighting Fixtures & Equipment"}, {"alias": "holidaydecorations", "title": "Holiday Decorations"}, {"alias": "seasonaldecorservices", "title": "Holiday Decorating Services"}], "rating": 5.0, "coordinates": {"latitude": 47.7547302246094, "longitude": -122.155723571777}, "transactions": [], "location": {"address1": null, "address2": null, "address3": "", "city": "Woodinville", "zip_code": "98072", "country": "US", "state": "WA", "display_address": ["Woodinville, WA 98072"]}, "phone": "+14259987995", "display_phone": "(425) 998-7995", "distance": 45057.69148266383}, {"id": "RBAKJMoVx5c7MMMSmPgG7g", "alias": "nw-custom-interior-and-remodeling-kent", "name": "NW Custom Interior & Remodeling", "image_url": "https://s3-media3.fl.yelpcdn.com/bphoto/a8nP5PZq0k3NncnWtGTkeA/o.jpg", "is_closed": false, "url": "https://www.yelp.com/biz/nw-custom-interior-and-remodeling-kent?adjust_creative=EQ9r9vED-d2_jQgXsuwaVw&utm_campaign=yelp_api_v3&utm_medium=api_v3_business_search&utm_source=EQ9r9vED-d2_jQgXsuwaVw", "review_count": 1, "categories": [{"alias": "contractors", "title": "Contractors"}, {"alias": "flooring", "title": "Flooring"}, {"alias": "kitchenandbath", "title": "Kitchen & Bath"}], "rating": 5.0, "coordinates": {"latitude": 47.371241, "longitude": -122.2771048}, "transactions": [], "location": {"address1": "4502 S 257th St", "address2": "", "address3": "", "city": "Kent", "zip_code": "98032", "country": "US", "state": "WA", "display_address": ["4502 S 257th St", "Kent, WA 98032"]}, "phone": "+12069004775", "display_phone": "(206) 900-4775", "distance": 36074.64684798887}, {"id": "qXf1C1xfgB9qAv4trEjvqw", "alias": "pande-cameron-and-company-seattle", "name": "Pande Cameron & Company", "image_url": "https://s3-media2.fl.yelpcdn.com/bphoto/oUo40qDnvKO37-HwNHt98g/o.jpg", "is_closed": false, "url": "https://www.yelp.com/biz/pande-cameron-and-company-seattle?adjust_creative=EQ9r9vED-d2_jQgXsuwaVw&utm_campaign=yelp_api_v3&utm_medium=api_v3_business_search&utm_source=EQ9r9vED-d2_jQgXsuwaVw", "review_count": 11, "categories": [{"alias": "carpet_cleaning", "title": "Carpet Cleaning"}, {"alias": "carpeting", "title": "Carpeting"}, {"alias": "rugs", "title": "Rugs"}], "rating": 3.0, "coordinates": {"latitude": 47.621867, "longitude": -122.3388591}, "transactions": [], "price": "$$$$", "location": {"address1": "4797 1st Ave S", "address2": "", "address3": "", "city": "Seattle", "zip_code": "98134", "country": "US", "state": "WA", "display_address": ["4797 1st Ave S", "Seattle, WA 98134"]}, "phone": "+12066246263", "display_phone": "(206) 624-6263", "distance": 45441.36582859116}, {"id": "_RQ6yHBHxBJQLdb9t5oxCQ", "alias": "kitchen-and-bath-design-federal-way", "name": "Kitchen & Bath Design", "image_url": "https://s3-media3.fl.yelpcdn.com/bphoto/MadOl2UQqGO21tTO1ltdlg/o.jpg", "is_closed": false, "url": "https://www.yelp.com/biz/kitchen-and-bath-design-federal-way?adjust_creative=EQ9r9vED-d2_jQgXsuwaVw&utm_campaign=yelp_api_v3&utm_medium=api_v3_business_search&utm_source=EQ9r9vED-d2_jQgXsuwaVw", "review_count": 1, "categories": [{"alias": "kitchenandbath", "title": "Kitchen & Bath"}, {"alias": "countertopinstall", "title": "Countertop Installation"}, {"alias": "cabinetry", "title": "Cabinetry"}], "rating": 5.0, "coordinates": {"latitude": 47.2881445, "longitude": -122.31791283}, "transactions": [], "location": {"address1": "35002 Pacific Hwy S", "address2": "Ste A102", "address3": "", "city": "Federal Way", "zip_code": "98003", "country": "US", "state": "WA", "display_address": ["35002 Pacific Hwy S", "Ste A102", "Federal Way, WA 98003"]}, "phone": "+12535175971", "display_phone": "(253) 517-5971", "distance": 41654.22207121816}, {"id": "t7MZ95tYlyP5Anj-kZJNmw", "alias": "pacific-topsoils-seattle", "name": "Pacific Topsoils", "image_url": "https://s3-media4.fl.yelpcdn.com/bphoto/-gewrm6EOY4oM5NrHk0nvw/o.jpg", "is_closed": false, "url": "https://www.yelp.com/biz/pacific-topsoils-seattle?adjust_creative=EQ9r9vED-d2_jQgXsuwaVw&utm_campaign=yelp_api_v3&utm_medium=api_v3_business_search&utm_source=EQ9r9vED-d2_jQgXsuwaVw", "review_count": 19, "categories": [{"alias": "buildingsupplies", "title": "Building Supplies"}, {"alias": "homeandgarden", "title": "Home & Garden"}, {"alias": "recyclingcenter", "title": "Recycling Center"}], "rating": 2.0, "coordinates": {"latitude": 47.70721, "longitude": -122.34271}, "transactions": [], "location": {"address1": "1212 N 107th St", "address2": "", "address3": "", "city": "Seattle", "zip_code": "98133", "country": "US", "state": "WA", "display_address": ["1212 N 107th St", "Seattle, WA 98133"]}, "phone": "+12064181301", "display_phone": "(206) 418-1301", "distance": 50801.30407691245}, {"id": "bqv7R-yY7UxMZorZrKz07w", "alias": "nw-bulldozing-and-hydroseeding-poulsbo-2", "name": "NW Bulldozing & Hydroseeding", "image_url": "https://s3-media2.fl.yelpcdn.com/bphoto/yrr10ELIPX5gHExeTxlP2Q/o.jpg", "is_closed": false, "url": "https://www.yelp.com/biz/nw-bulldozing-and-hydroseeding-poulsbo-2?adjust_creative=EQ9r9vED-d2_jQgXsuwaVw&utm_campaign=yelp_api_v3&utm_medium=api_v3_business_search&utm_source=EQ9r9vED-d2_jQgXsuwaVw", "review_count": 4, "categories": [{"alias": "landscaping", "title": "Landscaping"}, {"alias": "hydroponics", "title": "Hydroponics"}], "rating": 5.0, "coordinates": {"latitude": 47.744327545166, "longitude": -122.64429473877}, "transactions": [], "location": {"address1": "", "address2": null, "address3": "", "city": "Poulsbo", "zip_code": "98370", "country": "US", "state": "WA", "display_address": ["Poulsbo, WA 98370"]}, "phone": "+13602042362", "display_phone": "(360) 204-2362", "distance": 71734.40208742768}, {"id": "19oKuWNupTP_oln81Bp6pA", "alias": "aqua-rec-s-fircrest", "name": "Aqua Rec\u2019s", "image_url": "https://s3-media3.fl.yelpcdn.com/bphoto/yKIYcF7uY0v1BViJ-Lu6qw/o.jpg", "is_closed": false, "url": "https://www.yelp.com/biz/aqua-rec-s-fircrest?adjust_creative=EQ9r9vED-d2_jQgXsuwaVw&utm_campaign=yelp_api_v3&utm_medium=api_v3_business_search&utm_source=EQ9r9vED-d2_jQgXsuwaVw", "review_count": 14, "categories": [{"alias": "hottubandpool", "title": "Hot Tub & Pool"}, {"alias": "fireplace", "title": "Fireplace Services"}], "rating": 2.5, "coordinates": {"latitude": 47.2390459, "longitude": -122.5209495}, "transactions": [], "price": "$$", "location": {"address1": "1221 Regents Blvd", "address2": "", "address3": "", "city": "Fircrest", "zip_code": "98466", "country": "US", "state": "WA", "display_address": ["1221 Regents Blvd", "Fircrest, WA 98466"]}, "phone": "+12535654763", "display_phone": "(253) 565-4763", "distance": 57904.87977990759}, {"id": "8jdfpSGCuM1dZJaRTOo9IQ", "alias": "down-right-cozy-university-place", "name": "Down Right Cozy", "image_url": "https://s3-media3.fl.yelpcdn.com/bphoto/TqXgVwL-g7URnrOZaAo8ZA/o.jpg", "is_closed": false, "url": "https://www.yelp.com/biz/down-right-cozy-university-place?adjust_creative=EQ9r9vED-d2_jQgXsuwaVw&utm_campaign=yelp_api_v3&utm_medium=api_v3_business_search&utm_source=EQ9r9vED-d2_jQgXsuwaVw", "review_count": 12, "categories": [{"alias": "appliances", "title": "Appliances"}, {"alias": "fireplace", "title": "Fireplace Services"}], "rating": 3.0, "coordinates": {"latitude": 47.2351018, "longitude": -122.5362645}, "transactions": [], "price": "$$", "location": {"address1": "7412 27th St W", "address2": null, "address3": "", "city": "University Place", "zip_code": "98466", "country": "US", "state": "WA", "display_address": ["7412 27th St W", "University Place, WA 98466"]}, "phone": "+12535661919", "display_phone": "(253) 566-1919", "distance": 59141.36376474192}, {"id": "JsvWokI7axTvNn5Kx98_AA", "alias": "baywolf-dalton-seattle", "name": "Baywolf Dalton", "image_url": "https://s3-media3.fl.yelpcdn.com/bphoto/pGJjFjbXYrWjoPODo5d2bA/o.jpg", "is_closed": false, "url": "https://www.yelp.com/biz/baywolf-dalton-seattle?adjust_creative=EQ9r9vED-d2_jQgXsuwaVw&utm_campaign=yelp_api_v3&utm_medium=api_v3_business_search&utm_source=EQ9r9vED-d2_jQgXsuwaVw", "review_count": 3, "categories": [{"alias": "contractors", "title": "Contractors"}, {"alias": "cabinetry", "title": "Cabinetry"}, {"alias": "kitchenandbath", "title": "Kitchen & Bath"}], "rating": 3.5, "coordinates": {"latitude": 47.6792576, "longitude": -122.2900798}, "transactions": [], "location": {"address1": "6850 35th Ave NE", "address2": "Ste 11", "address3": "", "city": "Seattle", "zip_code": "98115", "country": "US", "state": "WA", "display_address": ["6850 35th Ave NE", "Ste 11", "Seattle, WA 98115"]}, "phone": "+12065231123", "display_phone": "(206) 523-1123", "distance": 45805.32415120385}, {"id": "KgUqBEf6ZV7MnZ5pjmpaLg", "alias": "pacific-topsoils-woodinville", "name": "Pacific Topsoils", "image_url": "https://s3-media4.fl.yelpcdn.com/bphoto/3LYhUM7NnS_Bq48g6eRfvA/o.jpg", "is_closed": false, "url": "https://www.yelp.com/biz/pacific-topsoils-woodinville?adjust_creative=EQ9r9vED-d2_jQgXsuwaVw&utm_campaign=yelp_api_v3&utm_medium=api_v3_business_search&utm_source=EQ9r9vED-d2_jQgXsuwaVw", "review_count": 2, "categories": [{"alias": "buildingsupplies", "title": "Building Supplies"}, {"alias": "recyclingcenter", "title": "Recycling Center"}, {"alias": "homeandgarden", "title": "Home & Garden"}], "rating": 2.5, "coordinates": {"latitude": 47.798424, "longitude": -122.121462}, "transactions": [], "location": {"address1": "8321 219th St SE", "address2": "", "address3": "", "city": "Woodinville", "zip_code": "98072", "country": "US", "state": "WA", "display_address": ["8321 219th St SE", "Woodinville, WA 98072"]}, "phone": "+14253372700", "display_phone": "(425) 337-2700", "distance": 47447.203316509556}, {"id": "mZoIIcYSQT4FtFtG0Rf79w", "alias": "pacific-topsoils-kenmore", "name": "Pacific Topsoils", "image_url": "https://s3-media3.fl.yelpcdn.com/bphoto/Vq7gudDqhNmXyqFKXgyTjA/o.jpg", "is_closed": false, "url": "https://www.yelp.com/biz/pacific-topsoils-kenmore?adjust_creative=EQ9r9vED-d2_jQgXsuwaVw&utm_campaign=yelp_api_v3&utm_medium=api_v3_business_search&utm_source=EQ9r9vED-d2_jQgXsuwaVw", "review_count": 11, "categories": [{"alias": "buildingsupplies", "title": "Building Supplies"}, {"alias": "homeandgarden", "title": "Home & Garden"}, {"alias": "recyclingcenter", "title": "Recycling Center"}], "rating": 1.5, "coordinates": {"latitude": 47.75644, "longitude": -122.24085}, "transactions": [], "location": {"address1": "7500 NE 175th St", "address2": "", "address3": "", "city": "Kenmore", "zip_code": "98028", "country": "US", "state": "WA", "display_address": ["7500 NE 175th St", "Kenmore, WA 98028"]}, "phone": "+14253372700", "display_phone": "(425) 337-2700", "distance": 48898.51978718208}, {"id": "IpP40WA5kKEd9ChMUMDb6w", "alias": "elite-spas-northwest-woodinville", "name": "Elite Spas Northwest", "image_url": "https://s3-media3.fl.yelpcdn.com/bphoto/rXZv1IaiRNN2K95LqulqgA/o.jpg", "is_closed": false, "url": "https://www.yelp.com/biz/elite-spas-northwest-woodinville?adjust_creative=EQ9r9vED-d2_jQgXsuwaVw&utm_campaign=yelp_api_v3&utm_medium=api_v3_business_search&utm_source=EQ9r9vED-d2_jQgXsuwaVw", "review_count": 1, "categories": [{"alias": "hottubandpool", "title": "Hot Tub & Pool"}, {"alias": "poolservice", "title": "Pool & Hot Tub Service"}], "rating": 5.0, "coordinates": {"latitude": 47.75388, "longitude": -122.07268}, "transactions": [], "location": {"address1": "19809 NE 174th St", "address2": null, "address3": null, "city": "Woodinville", "zip_code": "98077", "country": "US", "state": "WA", "display_address": ["19809 NE 174th St", "Woodinville, WA 98077"]}, "phone": "+14258441348", "display_phone": "(425) 844-1348", "distance": 41325.23224475722}, {"id": "uN3nJacqsfsNHQKuNJaA7g", "alias": "hacienda-custom-woodwork-seattle", "name": "Hacienda Custom Woodwork", "image_url": "https://s3-media4.fl.yelpcdn.com/bphoto/faW3rljVoqipPGHC1q3pmw/o.jpg", "is_closed": false, "url": "https://www.yelp.com/biz/hacienda-custom-woodwork-seattle?adjust_creative=EQ9r9vED-d2_jQgXsuwaVw&utm_campaign=yelp_api_v3&utm_medium=api_v3_business_search&utm_source=EQ9r9vED-d2_jQgXsuwaVw", "review_count": 1, "categories": [{"alias": "cabinetry", "title": "Cabinetry"}, {"alias": "kitchenandbath", "title": "Kitchen & Bath"}], "rating": 5.0, "coordinates": {"latitude": 47.560593, "longitude": -122.338676}, "transactions": [], "location": {"address1": "4660 E Marginal Way S", "address2": "Ste 7", "address3": "", "city": "Seattle", "zip_code": "98134", "country": "US", "state": "WA", "display_address": ["4660 E Marginal Way S", "Ste 7", "Seattle, WA 98134"]}, "phone": "+12069229330", "display_phone": "(206) 922-9330", "distance": 42665.89365880087}, {"id": "z2SFGokNGi8RDn92tdfcAQ", "alias": "r90-lighting-seattle", "name": "R90 Lighting", "image_url": "https://s3-media4.fl.yelpcdn.com/bphoto/aetH-vxFIQDSC77PCqcB1w/o.jpg", "is_closed": false, "url": "https://www.yelp.com/biz/r90-lighting-seattle?adjust_creative=EQ9r9vED-d2_jQgXsuwaVw&utm_campaign=yelp_api_v3&utm_medium=api_v3_business_search&utm_source=EQ9r9vED-d2_jQgXsuwaVw", "review_count": 1, "categories": [{"alias": "lighting", "title": "Lighting Fixtures & Equipment"}, {"alias": "audiovisualequipmentrental", "title": "Audio/Visual Equipment Rental"}, {"alias": "lightingstores", "title": "Lighting Stores"}], "rating": 5.0, "coordinates": {"latitude": 47.545878, "longitude": -122.334905}, "transactions": [], "location": {"address1": "6335 1st Ave S", "address2": "Ste 1", "address3": "", "city": "Seattle", "zip_code": "98108", "country": "US", "state": "WA", "display_address": ["6335 1st Ave S", "Ste 1", "Seattle, WA 98108"]}, "phone": "+18339438548", "display_phone": "(833) 943-8548", "distance": 41859.49379662001}, {"id": "dt5HQgd3BdkwOR-hAsqBrw", "alias": "alpine-cabinet-monroe", "name": "Alpine Cabinet", "image_url": "https://s3-media4.fl.yelpcdn.com/bphoto/kc0gt5HldqQp_L_8bbVJGg/o.jpg", "is_closed": false, "url": "https://www.yelp.com/biz/alpine-cabinet-monroe?adjust_creative=EQ9r9vED-d2_jQgXsuwaVw&utm_campaign=yelp_api_v3&utm_medium=api_v3_business_search&utm_source=EQ9r9vED-d2_jQgXsuwaVw", "review_count": 2, "categories": [{"alias": "cabinetry", "title": "Cabinetry"}, {"alias": "kitchenandbath", "title": "Kitchen & Bath"}], "rating": 3.0, "coordinates": {"latitude": 47.86674, "longitude": -121.99898}, "transactions": [], "location": {"address1": "17270 Tye St SE", "address2": "Ste D", "address3": "", "city": "Monroe", "zip_code": "98272", "country": "US", "state": "WA", "display_address": ["17270 Tye St SE", "Ste D", "Monroe, WA 98272"]}, "phone": "+13608639910", "display_phone": "(360) 863-9910", "distance": 50806.52514943761}, {"id": "zoaWUnwvEn3OT9y5JecSKw", "alias": "pacific-topsoils-marysville", "name": "Pacific Topsoils", "image_url": "https://s3-media1.fl.yelpcdn.com/bphoto/W3Lw64X63AXvt3_eEd7XPw/o.jpg", "is_closed": false, "url": "https://www.yelp.com/biz/pacific-topsoils-marysville?adjust_creative=EQ9r9vED-d2_jQgXsuwaVw&utm_campaign=yelp_api_v3&utm_medium=api_v3_business_search&utm_source=EQ9r9vED-d2_jQgXsuwaVw", "review_count": 1, "categories": [{"alias": "buildingsupplies", "title": "Building Supplies"}, {"alias": "recyclingcenter", "title": "Recycling Center"}, {"alias": "gardening", "title": "Nurseries & Gardening"}], "rating": 4.0, "coordinates": {"latitude": 47.996116, "longitude": -122.178973}, "transactions": [], "location": {"address1": "300 W Smith Island Rd", "address2": "", "address3": "", "city": "Marysville", "zip_code": "98270", "country": "US", "state": "WA", "display_address": ["300 W Smith Island Rd", "Marysville, WA 98270"]}, "phone": "+18008847645", "display_phone": "(800) 884-7645", "distance": 68991.06185806314}, {"id": "U6C_SooQi8OneNeZc0fcrQ", "alias": "hc-on-first-snohomish-2", "name": "HC on First", "image_url": "https://s3-media2.fl.yelpcdn.com/bphoto/55gbhaUvx6vQj25vClmRiw/o.jpg", "is_closed": false, "url": "https://www.yelp.com/biz/hc-on-first-snohomish-2?adjust_creative=EQ9r9vED-d2_jQgXsuwaVw&utm_campaign=yelp_api_v3&utm_medium=api_v3_business_search&utm_source=EQ9r9vED-d2_jQgXsuwaVw", "review_count": 1, "categories": [{"alias": "interiordesign", "title": "Interior Design"}, {"alias": "homedecor", "title": "Home Decor"}, {"alias": "homestaging", "title": "Home Staging"}], "rating": 1.0, "coordinates": {"latitude": 47.91164667, "longitude": -122.09826667}, "transactions": [], "location": {"address1": "1234 1st St", "address2": null, "address3": "", "city": "Snohomish", "zip_code": "98290", "country": "US", "state": "WA", "display_address": ["1234 1st St", "Snohomish, WA 98290"]}, "phone": "+14253196874", "display_phone": "(425) 319-6874", "distance": 57995.68350147584}], [{"id": "PuTQ0sp0-zml5E6La2T0Zw", "alias": "lazy-j-tree-farm-port-angeles", "name": "Lazy J Tree Farm", "image_url": "https://s3-media3.fl.yelpcdn.com/bphoto/7Z6WcYn4bUoIUJvqeE_LJA/o.jpg", "is_closed": false, "url": "https://www.yelp.com/biz/lazy-j-tree-farm-port-angeles?adjust_creative=EQ9r9vED-d2_jQgXsuwaVw&utm_campaign=yelp_api_v3&utm_medium=api_v3_business_search&utm_source=EQ9r9vED-d2_jQgXsuwaVw", "review_count": 3, "categories": [{"alias": "landscaping", "title": "Landscaping"}, {"alias": "farmersmarket", "title": "Farmers Market"}, {"alias": "christmastrees", "title": "Christmas Trees"}], "rating": 5.0, "coordinates": {"latitude": 48.1114044189453, "longitude": -123.278442382812}, "transactions": [], "price": "$$", "location": {"address1": "225 Gehrke Rd", "address2": "", "address3": "", "city": "Port Angeles", "zip_code": "98362", "country": "US", "state": "WA", "display_address": ["225 Gehrke Rd", "Port Angeles, WA 98362"]}, "phone": "+13604575950", "display_phone": "(360) 457-5950", "distance": 133920.45920094976}, {"id": "J4onIrT-EJCRLCt9ZzAVsQ", "alias": "atlas-and-cedar-yakima", "name": "Atlas and Cedar", "image_url": "https://s3-media3.fl.yelpcdn.com/bphoto/seqIhkwZqHh7h7kRE05Ypg/o.jpg", "is_closed": false, "url": "https://www.yelp.com/biz/atlas-and-cedar-yakima?adjust_creative=EQ9r9vED-d2_jQgXsuwaVw&utm_campaign=yelp_api_v3&utm_medium=api_v3_business_search&utm_source=EQ9r9vED-d2_jQgXsuwaVw", "review_count": 1, "categories": [{"alias": "furniture", "title": "Furniture Stores"}, {"alias": "metalfabricators", "title": "Metal Fabricators"}], "rating": 5.0, "coordinates": {"latitude": 46.59387, "longitude": -120.50082}, "transactions": [], "location": {"address1": "616 S 2nd St", "address2": "", "address3": null, "city": "Yakima", "zip_code": "98901", "country": "US", "state": "WA", "display_address": ["616 S 2nd St", "Yakima, WA 98901"]}, "phone": "+15098954552", "display_phone": "(509) 895-4552", "distance": 135656.83272832312}]]